Name,Elevation (m),lat,lon
Col Becchei Dessora,2794,46.6077526,12.0445388
Braunarlspitze,2649,47.2294962,10.0643311
Cima Cadin di San Lucano,2839,46.5776149,12.2882724
Rollspitze - Cima Rolle,2800,46.9464887,11.5077966
Cimon del Froppa,2932,46.5073978,12.3404365
Damülser Mittagsspitze,2095,47.310367,9.883876
Weiße Spitze,2962,46.8718905,12.3579692
Flüela Wisshorn,3085,46.7622266,9.9666588
Gamsberg,2385,47.1352782,9.3738872
Geißstein,2363,47.3374452,12.4952799
Glanderspitze,2512,47.1485594,10.6616265
Große Arnspitze,2196,47.3973362,11.2223256
Großer Lafatscher,2696,47.3456604,11.4525659
Großer Rettenstein Kreuzgipfel,2362,47.3331104,12.2962942
Guffertspitze,2194,47.5462308,11.7886399
Haldensteiner Calanda,2805,46.8999105,9.4672775
Hausstock,3158,46.874446,9.0655497
Hintere Schwärze,3624,46.7734046,10.9146852
Hochiss,2299,47.4584505,11.7648128
Hochkarspitze,2482,47.4475006,11.3500655
Hochplatte,2082,47.5522729,10.8420527
Hochplattig,2768,47.353134,10.9883727
Karhorn,2416,47.2481561,10.1512026
Knittelkarspitze,2376,47.375872,10.651023
Kellenspitze,2238,47.4989941,10.6300956
Krottenkopf,2086,47.5443752,11.1914281
Kuchenspitze,3148,47.0485358,10.2300323
Kuhgrat,2122,47.1666716,9.5608307
Madrisahorn,2826,46.9311111,9.8722222
Monte Cassa del Ferro,3140,46.5786065,10.2016737
Monte Cristallo,3221,46.5754463,12.2005443
Monte Pettini,2932,46.5361065,10.2275001
Ruchen,2441,47.0701037,9.1441635
Muttler,3294,46.90066,10.37873
Namloser Wetterspitze,2553,47.3231897,10.6414282
Napfspitz - Cima Cadini,3144,47.0600953,12.0396129
Ortler - Ortles,3905,46.5090956,10.5449304
Parseierspitze,3036,47.1742592,10.4782868
Pfaffeneck,2539,47.1719444,10.0408333
Dürrenstein - Picco di Vallandro,2839,46.6725105,12.1855479
Tschima da Flix - Westgipfel,3301,46.521752,9.6995318
Piz Daint,2968,46.6187514,10.2909392
Piz Forbesch,3262,46.5203948,9.5591767
Piz Linard,3410,46.7989742,10.0714382
Piz Murtaröl,3180,46.5702756,10.2874958
Piz Ot,3246,46.5432535,9.810032
Piz Pisoc,3173,46.7444391,10.2794363
Piz S-chalambert Dadaint,3031,46.8008356,10.413325
Piz Segnas,3098,46.9079048,9.2396924
Piz Starlex,3075,46.6627506,10.3925516
Piz Tavrü,3168,46.6791611,10.2961046
Piz Vadret,3229,46.6870246,9.9626944
Punta Sorapiss,3205,46.5069444,12.2116667
Rietzer Grießkogel,2884,47.2458277,11.0589619
Ringelspitz,3247,46.8983333,9.3430556
Haunold - Rocca dei Baranci,2966,46.6887473,12.2778058
Säntis,2502,47.249444,9.343241
Schesaplana,2965,47.0538123,9.7074091
Schwarzhorn,3147,46.7357952,9.9417535
Stätzer Horn,2574,46.7558333,9.5122222
Tofana di Mezzo,3244,46.5509896,12.0654921
Tofana di Rozes,3225,46.537008,12.051053
Vallüla,2813,46.9373037,10.1128802
Vesulspitze,3089,47.0016667,10.3491667
Vorderunnutz,2078,47.5151016,11.7385436
Weißkugel - Palla Bianca,3738,46.7978283,10.7260747
Widderstein,2533,47.2847695,10.1293196
Wildspitze,3768,46.8852429,10.867279
Zimba,2643,47.0913617,9.7889005
Glattecker,2403,47.2681196,9.9713275
Zugspitze,2962,47.421215,10.986297
Soiernspitze,2253,47.4815666,11.3571077
Galinakopf,2198,47.1516384,9.6205886
Portlesspitze - Pizzo Portles,3074,46.7444225,10.647688
Südliche Valvelspitze,3360,46.7687255,10.6706547
Piz la Ila,2078,46.5642358,11.9051941
Piz de Surega,2011,46.5564255,11.9218183
Cherz,2095,46.5166435,11.8847157
Alpkopf,2023,47.0357643,10.5702282
Dreibündenstein,2160,46.800915,9.4973646
Chäserrugg,2262,47.154808,9.3127749
Woleggleskarspitze,2522,47.3313983,10.451459
Wildmahdspitze,2489,47.2732488,10.2969711
Strahlkopf,2388,47.294434,10.3591982
Östliche Plattenspitze,2488,47.3177283,10.3944583
Balschtespitze,2498,47.3234996,10.4177935
Noppenspitze,2594,47.3258196,10.4410805
Kreuzeck,2376,47.3370382,10.3569087
Fil,2418,46.8084207,9.0597509
Schindlerspitze,2648,47.1494581,10.2218292
Patteriol,3056,47.0441055,10.1876242
Östliche Eisentaler Spitze,2753,47.0793072,10.1001147
Gaflunakopf,2676,47.0638876,10.1346157
Pfannseekopf,2611,47.061067,10.145947
Hintere Ölgrubenspitze,3296,46.8907542,10.7748664
Lorenzen - Cima San Lorenzo,2484,46.7123042,11.5188306
Piz Scalottas,2321,46.7211604,9.5108612
Zischgeles,3004,47.1315444,11.0950077
Großer Solstein,2541,47.3027047,11.3076615
Acherkogel,3008,47.189208,10.956653
Ackerlspitze,2329,47.559125,12.347188
Ahornspitze,2976,47.1292231,11.9178032
Bockkarkopf,2609,47.2921766,10.2877037
Brandberger Kolm,2700,47.1726022,11.9622122
Brechhorn,2032,47.3779817,12.2662781
Daniel,2340,47.4326486,10.8802309
Vorderer Brochkogel,3565,46.8748856,10.8508716
Dawinkopf,2968,47.1661288,10.4730254
Leutascher Dreitorspitze,2682,47.4004814,11.1239474
Eisenspitze-Nordgipfel,2838,47.1633205,10.4469155
Linker Fernerkogel,3278,46.9211912,10.9101317
Östlicher Elferturm,2499,47.084574,11.3133377
Firmisanschneide,3490,46.8197993,10.9536995
Fluchtkogel,3494,46.8582269,10.7921997
Östlicher Feuerstein - Montarso Orientale,3267,46.9717141,11.2442192
Finailspitze - Punta di Finale,3514,46.7804143,10.8319667
Furgler,3004,47.0403264,10.5118571
Südliches Fluchthorn,3380,46.8909631,10.2276526
Galtjoch,2109,47.3940015,10.6754778
Großer Galtenberg,2424,47.3368365,11.9758788
Wilder Freiger - Cima Libera,3418,46.9705175,11.1899934
Geierköpfe-Hauptgipfel,2161,47.5191797,10.8749008
Galzig,2179,47.134133,10.2241504
Gamezkogel,3125,47.0247222,10.8283333
Gigalitz,3001,47.0579489,11.8908592
Gilfert,2506,47.2679709,11.7430179
Gatschkopf,2945,47.1732212,10.4893047
Großer Geiger,3360,47.0931708,12.3085855
Großvenediger,3657,47.1092664,12.3453356
Glungezer,2677,47.2075977,11.5283837
Vordere Goinger Halt,2242,47.5646007,12.3253687
Gimpel,2173,47.5012736,10.6125164
Heiterwand,2639,47.3141753,10.7328934
Breiter Grieskogel,3287,47.1012558,11.0226228
Hochfrottspitze,2649,47.2969091,10.2930007
Hinterreintalschrofen,2670,47.3961111,11.0758333
Habicht,3277,47.0438844,11.2895399
Hochferner - Gran Vedretta,3470,46.9779753,11.7179995
Hintergraslspitzen,3334,46.8588786,10.8107247
Jochköpfl,3143,46.9259999,11.1078766
Imster Muttekopf,2774,47.2674515,10.65172
Hochreichkopf,3010,47.1704527,10.9697703
Hochvernagtspitze,3536,46.8814307,10.7969244
Hochnissl,2546,47.3673266,11.617999
Nördliches Höllhorn,2145,47.35946,10.38698
Westliche Karwendelspitze,2385,47.4300189,11.298858
Hochwilde - Cima Altissima,3482,46.7654204,11.0222536
Südliches Höllhorn,2145,47.35827,10.38663
K2,3253,46.9659125,10.7940661
Kaltenberg,2896,47.0865075,10.1382648
Karlesspitze - Cima di Quaira,3463,46.7721198,10.9749815
Kuhkopf,2399,47.436169,11.4561233
Kreuzjoch / Kellerjoch,2343,47.3190551,11.7705435
Vordere Kesselschneid,2002,47.606892,12.2778148
Kreuzspitze,3155,47.0467322,12.3591005
Kreuzjoch,2558,47.2514939,11.9826003
Kröndlhorn,2444,47.2987423,12.1649479
Nördliche Malhamspitz,3373,47.0493651,12.259237
Östliche Marzellspitze,3555,46.7711488,10.9107249
Marchspitze,2609,47.3151318,10.3744164
Lärcheck,2123,47.569032,12.3515446
Lasörling,3098,46.9759022,12.3550378
Kreuzspitze,3455,46.8163049,10.8700598
Luibiskogel,3110,47.0495574,10.9040158
Mädelegabel,2644,47.2999249,10.2956802
Oberreintalschrofen,2523,47.3955556,11.1038889
Maukspitze,2231,47.5588954,12.3563668
Mittagskogel,3162,46.9335443,10.8718085
Wilde Leck,3359,47.0027395,11.0622824
Hohes Licht,2651,47.2801709,10.2760287
Loreakopf,2471,47.3541156,10.7713999
Mutmalspitze,3528,46.7830059,10.9084967
Predigtstein,2234,47.3833181,11.058048
Großer Mörchner,3285,47.0313345,11.8650512
Hohe Munde Ostgipfel,2592,47.3462065,11.0812091
Rappenspitze,2223,47.4022373,11.645741
Großer Ramolkogel,3549,46.846794,10.9591333
Rastkogel,2762,47.204304,11.7508806
Fleischbank,2186,47.5692514,12.3176243
Patscherkofel,2246,47.2088279,11.4606079
Rainerhorn,3559,47.1008482,12.3641464
Puitkogel,3345,46.9814659,10.9011992
Hohes Rad,2934,46.8928601,10.1115262
Rauheck,2385,47.3447112,10.368148
Regalmspitze,2253,47.5566161,12.3390054
Hoher Riffler (Süd),3166,47.1159685,10.3709728
Hoher Riffler,3231,47.0813161,11.7043401
Rostocker Eck,2749,47.0501914,12.2876843
Rote Flüh,2108,47.4995774,10.6085088
Rote Säule,2820,47.0397249,12.3498374
Rotgundspitze,2485,47.2881103,10.265806
Ruderhofspitze,3474,47.0397862,11.1430784
Saumspitze,3039,47.0508706,10.2696446
Schalfkogel,3537,46.8017625,10.9590789
Scheffauer,2111,47.5573214,12.2418396
Schaufelspitze,3332,46.9784524,11.1156801
Große Schlenkerspitze,2827,47.2490671,10.6154437
Schönbichler Horn,3133,47.0086652,11.7730357
Schneefernerkopf,2874,47.4095968,10.9699595
Schrandele,3392,47.0547828,11.1117885
Schrankogel,3497,47.0442042,11.098894
Schöntalspitze,3002,47.1222032,11.0944998
Schwabenkopf,3379,47.0066667,10.7936111
Mittlerer Seekarkopf,3063,46.8736111,10.6191667
Schweikert,2881,47.0334776,10.773395
Hinterer Seelenkogel - Cima delle Anime,3475,46.8015987,11.0443642
Similaun,3597,46.763682,10.8806482
Serles,2717,47.1239628,11.3813481
Westliche Seespitze,3354,47.0475,11.1425
Sonklarspitze - Cima di Malavalle,3444,46.9562776,11.1645408
Sonnjoch,2458,47.4123801,11.6051374
Sonnenspitze,2416,47.3682476,10.921911
Strahlkogel,3288,47.1090332,11.0195215
Hinterer Spiegelkogel,3426,46.8292483,10.9588303
Steinbergstein,2215,47.3414365,12.190085
Stubaier Wildspitze,3341,46.983073,11.099443
Pflerscher Tribulaun - Tribulaun di Fleres,3097,46.9852899,11.3388907
Treffauer,2306,47.5553498,12.291484
Tschirgant,2372,47.2416948,10.7963916
Großer Trögler,2902,46.995677,11.1603469
Thurntaler,2408,46.7745215,12.3829073
Totenkirchl,2190,47.57,12.3119444
Urbeleskarspitze,2631,47.3368069,10.4684011
Piz Val Gronda,2812,46.9232667,10.2909586
Ötztaler Urkund,3554,46.8807563,10.8735642
Hochunnutz,2075,47.5199844,11.735936
Wannig,2493,47.3366281,10.8621255
Hohe Warte,2596,47.3015941,11.3334901
Vorderseespitze,2889,47.1848898,10.3671263
Verpeilspitze,3423,47.0034705,10.804949
Hohe Villerspitze,3087,47.1067339,11.1653884
Wiedersberger Horn,2127,47.361238,11.9228776
Wildenkogel,3021,47.1040249,12.4594679
Unknown,3370,46.9688733,11.7470342
Südliche Wetterspitze,2746,47.4007961,10.9703511
Weißseespitze - Cima del Lago Bianco,3498,46.8462323,10.7168691
Wildnörderer,3015,46.8913889,10.6152778
Wildgrat,2971,47.1406277,10.8267113
Kleiner Wilder,2306,47.363175,10.386236
Zsigmondyspitze,3089,47.0504335,11.8378314
Vordere Grubenwand,3173,47.1191845,11.0860454
Wörner,2476,47.4497121,11.3381365
Zwölferspitze,2562,47.0766522,11.2995344
Aglsspitze - Cima dell Accla,3194,46.9655114,11.2438947
Botzer - Il Capro,3251,46.9311224,11.198011
Gamskogel,2813,47.0553121,10.9969684
Wildkogel,2224,47.2857538,12.2973967
Osterfelderkopf,2060,47.4386941,11.049713
Alpspitze,2628,47.4294968,11.0478118
Walser Hammerspitze,2170,47.3264552,10.1995502
Oberstdorfer Hammerspitze,2260,47.3193423,10.2104165
Vermuntkopf,2851,46.8641207,10.1264589
Parpaner Rothorn,2861,46.7429325,9.5970634
Parpaner Weisshorn,2775,46.7590938,9.6020134
Parpaner Schwarzhorn,2683,46.7746005,9.5964737
Hinterunnutz,2007,47.5298593,11.734708
Plattenkogel,2039,47.2248591,12.1352773
Schneekarspitze,3210,47.1461011,12.0930285
Schlieferspitze,3290,47.1229625,12.24303
Tuxeck,2226,47.5523693,12.2893322
Schneid,2009,47.4933672,10.6449598
Saile (Nockspitze),2404,47.1920709,11.3247164
Saile (Nockspitze) Vorgipfel,2379,47.1942828,11.3260473
Spitzmandl,2206,47.1967727,11.3333826
Nebelhorn,2224,47.4218727,10.3423461
Windspitz,2390,46.6857979,11.3036364
Kleiner Riffler,3014,47.1164873,10.3651533
Blankahorn,3129,47.1142889,10.3677235
Frieder,2053,47.5217533,10.9595715
Friederspitz,2049,47.5171414,10.9588323
Schellschlicht,2052,47.5092999,10.9163331
Holenke,2044,47.331628,9.928054
Sass da Ciampac,2667,46.5631204,11.8352476
Piza de Gherdenacia,2673,46.5945886,11.8482211
Crap Tgietschen,2583,46.8337629,9.0703575
Kistenstöckli,2746,46.8173374,9.0199219
Kuchelbergspitze,2020,47.5414219,10.9425313
Kuchelbergkopf,2026,47.5349169,10.9254312
Geierköpfe-Ostgipfel,2060,47.5183384,10.8888673
Geierköpfe-Westgipfel,2143,47.5161748,10.8659693
Ruitelspitze,2580,47.2556097,10.445962
Zwölferspitze,2594,47.2508184,10.4649844
Munt la Schera,2587,46.6451816,10.2105038
Großer Daumen,2280,47.4415982,10.3755228
Speikboden,2653,46.9459145,12.4186206
Donnerstein,2725,46.9472845,12.4273937
Rußkopf,2693,46.8660274,10.169851
Piz Faschalba,3048,46.8663175,10.2326368
Curuna Lada,3079,46.8708819,10.2413126
Kronplatz - Plan de Corones,2275,46.7387791,11.9583111
Schöttelkarspitze,2050,47.4940798,11.3298011
Mohnenfluh,2542,47.2324241,10.1021826
Unknown,2285,47.311405,10.214009
Nördlicher Schafalpenkopf,2320,47.3105646,10.2166035
Mittlerer Schafalpenkopf,2302,47.3066046,10.2104142
Südlicher Schafalpenkopf,2272,47.302794,10.205396
Kemptner Kopf,2191,47.2975067,10.1990974
Rüfikopf,2360,47.2012227,10.1696771
Vorderes Alpjoch,2121,47.2570076,10.6756217
Maldongrat,2544,47.2982864,10.6746367
Tschachaun,2334,47.3082041,10.6727936
Frauenalpl,2202,47.4142547,11.1175579
Bernadeinkopf,2144,47.4310847,11.0603371
Schochenspitze,2069,47.4522897,10.5240349
Kompar,2011,47.4555507,11.5845235
Punta Fiames,2240,46.5759336,12.129961
Col Rosà,2165,46.5857888,12.0976984
Pleisjochspitze,2201,47.3963127,10.6135092
Roßkogel,2646,47.2230014,11.1538119
Weißstein,2640,47.2198453,11.148373
Tschaggunser Mittagsspitze,2168,47.0457713,9.8850024
Muttjöchle,2074,47.0983772,10.0279695
Orenknott,2258,46.6819857,11.0242082
Rötkreuz,2074,47.0422793,12.1397837
Geißhorn,2366,47.28786,10.175332
Hinterer Maurerkeeskopf,3311,47.0925558,12.2837771
Mooskopf,2532,47.0135928,10.7647794
Mittagskopf,2616,47.0460855,10.7196525
Roter Schrofen,2702,47.0398856,10.7180303
Campill - Campiglio,2190,46.752977,11.8252006
Astjoch - Cima Lasta,2194,46.7628514,11.8087573
Wannejöchl,2497,47.1548042,10.6704133
Guflekopf,2563,47.2125853,10.3382361
Mittagsspitze,2227,47.3568541,10.576601
Seebleskarspitze,2539,47.2489227,10.4815965
Bschlaber Kreuzspitze,2462,47.3316919,10.5912784
Guflespitze,2527,47.2084473,10.3372388
Sattelkarspitze,2552,47.3280268,10.4477114
Sagzahn,2228,47.4532512,11.7979621
Vorderes Sonnwendjoch,2224,47.444691,11.8010535
Hinterer Tajakopf,2407,47.360273,10.9486038
Erlspitze,2405,47.3201184,11.2850433
Verhupfspitze,2957,46.8885771,10.0560878
Haidachstellwand,2192,47.4440114,11.7803713
Marchspitze,2004,47.4660571,11.8031555
Rotspitze,2067,47.4454298,11.7523556
Stuhlböcklkopf,2169,47.4618031,11.7560255
Schneeglocke,3223,46.8643969,10.0854312
Silvrettahorn,3244,46.8581117,10.0926709
Piz Buin,3312,46.8441236,10.1188918
Nördliche Linderspitze,2372,47.4279802,11.2930554
Dreiländerspitze,3197,46.8510186,10.1449726
Tschifernella,2261,46.9107407,10.05483
Stoanerne Mandln,2003,46.6357213,11.3046101
Saykogel,3355,46.798106,10.8519392
Glurnser Köpfl - Monte di Glorenza,2373,46.6456728,10.5180569
Planggerle,2534,46.6343966,10.5085227
Piz Chavalatsch - Monte Cavallaccio,2763,46.6153316,10.4919833
Hochmaderer,2823,46.9288156,10.0283028
Kleinlitzner,2783,46.899748,10.0329655
Großlitzner,3109,46.8864647,10.0382915
Riedkopf,2551,46.9749946,9.8777771
Große Schlicke,2059,47.5184451,10.6234601
Kreuzkogel,3338,46.8106084,10.8624364
Hundsheim,2822,46.981646,11.1688116
Aperer Freiger,3262,46.9767153,11.1796667
Unknown,2048,47.3098962,10.3377599
Samspitze,2624,47.1737789,10.3955589
Bielerkopf,2389,46.9243162,10.0961132
Krottenkopf,2656,47.3115458,10.3556629
Kohlbergspitze,2202,47.4378194,10.7996311
Wanglspitze,2420,47.1842117,11.7748141
Pederköpfl - Dosso di Peder,2586,46.5064916,10.6913201
Hoher Freschen,2004,47.3069031,9.7776539
Pitzenegg,2174,47.443061,10.8235643
Hochschrutte,2247,47.4451007,10.8420855
Kleines Pfuitjöchle,2133,47.4429115,10.8494729
Gitsch - Monte Cuzzo,2510,46.8595389,11.686882
Upsspitze,2332,47.4312405,10.8745916
Großes Pfuitjöchle,2196,47.4413629,10.8548066
Breite Rast,2105,46.9774608,11.9946726
Schönberg - Montebello,2273,46.967148,11.8837583
Hasenöhrl - L'Orecchia di Lepre,3257,46.5440663,10.8588813
Schwarzer Kranz,2494,47.2150396,10.2678565
Furklaspitze,2587,47.17474,10.3582318
Freispitze,2884,47.2006699,10.4285634
Erlispitze,2634,47.1713344,10.2114127
Grasberg,2020,47.4768574,11.5425216
Piz Boè,3152,46.5089192,11.828299
Punta Grohmann - Grohmannspitze,3114,46.5106383,11.7329941
Sasplat - Plattkofel - Sasso Piatto,2958,46.5141372,11.715784
Plattenspitze / Punta delle Laste,3422,46.5214043,10.6411545
Pralongiá,2109,46.5330314,11.9156425
Col de Stagn,2517,46.5177941,11.8519943
Cé de Salares,2283,46.5456136,11.987729
Piza de Medo - Punta di mezzo,2989,46.5515116,12.0141774
Unknown,2535,46.5576985,11.8020594
Wasserkofel - Sas dal'Ega - Furchetta Grande,2924,46.6133005,11.781847
Sas Rigais,3025,46.6092876,11.7668196
Geislerspitze - Gran Odla - Grande Odla,2832,46.6037551,11.7557292
Le Ciaval,2907,46.6144819,11.951485
Col de Locia,2069,46.5654516,11.9983647
Piza dl Lech,2654,46.5575563,12.0026699
Monte Paterno - Paternkofel,2744,46.6304112,12.3151777
Guflreiteck - Monte Covolo,2160,46.6765592,11.4561717
Piza dales Nü,2968,46.6303454,11.9810725
Alfreider Joch - Giogo d'Alfarei,2280,46.6977434,11.8183826
Vorderer Verdinser Plattenspitz - Laste di Verdins (di fuori),2680,46.7017954,11.2755741
Maiser Rast - Riposo di Maia,2027,46.6609483,11.2844194
Foratrida,3134,46.7052599,10.4088383
Hundskopf - Cima Cane,2356,46.7090722,11.5842781
Radlseenock - Punta del Lago Rodella,2391,46.7102075,11.5785461
Unknown,2410,46.7105198,11.5582945
Stangila - Monte delle Vacche,2429,46.7121188,11.5562543
Eiskofel,2421,46.7131756,11.5524711
Le Seneser - Senneser Karspitze - Punta Quaira di Sennes,2659,46.6766491,12.0563558
Hornischegg - Monte Arnese,2550,46.7008257,12.4138337
Hollbrucker Spitze - Cima di Pontegrotta,2580,46.6990907,12.4270422
Demutspitze - La Muta,2592,46.6901926,12.4461393
Dreischusterspitze - Punta dei Tre Scarperi,3152,46.6679716,12.3176
Schusterplatte - Lastron dei Scarperi,2956,46.6571141,12.3165155
Jocherer Berg - Monte del Passo,2394,46.6956577,11.4920108
Samspitze,2563,46.7062821,11.4934185
Geißhorn - Cima di Capra,2519,46.7239304,11.5113608
Kolbenspitze - La Clava,2868,46.772587,11.1474116
Rauchegg,2078,46.7222992,12.3776227
Tagewaldhorn - Corno di Tramin,2706,46.7806788,11.4967367
Liffelspitz - Monte Livolo,2590,46.7459302,11.5079709
Kreuzjoch - Monte della Croce,2560,46.7802421,11.5294286
Marchspitze - Cima Mercato,2544,46.7712866,11.516549
Gaishörndl,2615,46.791449,12.2807583
Tatschspitze - Montaccio di Pennes,2526,46.8088189,11.4828741
Niedereck - Dosso Basso,2304,46.804851,11.4663503
Scheibe,2050,46.843008,11.9142724
Windeck - Cima del Vento,2418,46.8633504,11.9025753
Putzenhöhe - Cime di Pozzo,2438,46.8644979,11.8634288
Mutenock - Monte Mutta,2484,46.8677211,11.8233167
Zwölferspitz - Cima Dodici,2351,46.870631,11.8445255
Hinterbergkofel - Monte di Dentro,2727,46.8737526,12.2181411
Kandlkopf,2354,46.8674049,11.9090562
Rixer Nock,2205,46.8764326,11.9136694
Eidechsspitze - Cima di Terento,2738,46.8702925,11.7556078
Kleiner Grubbachspitz - Rocca dei Camosci,2756,46.8802132,11.7699427
Hochgrubbachspitz - Monte Gruppo,2809,46.8825081,11.7697254
Ebengrubenspitz - Cima di Pianbello,2989,46.906951,11.5835828
Blauer Stoan,2584,46.8838945,11.5884051
Schwarzenstoan,2696,46.878022,11.5941355
Schellenberg,2355,46.8543832,11.5895385
Gänsebichl - Monte di dentro,2100,46.8424915,11.5928883
Sandturm - Cima della Rena,2755,46.9272412,11.6136178
Sandspitz,2719,46.9258676,11.6177633
Rübespitz - Punta Riva,2787,46.9260047,11.6230038
Bretterspitz - Cima di San Paolo,2695,46.8902539,11.6612458
Fallmetzer - Monte Val di Mezzo,2568,46.8708806,11.6768288
Niederer Weißzint - Punta Bianca Bassa,3263,46.9575211,11.7360119
Blauwand,2584,46.9083197,11.7387718
Schwarzerspitz,2862,46.9885081,12.0770572
Schaflahnernock - Cima delle Pecore,2703,46.9523665,11.8132157
Weiße Wand - Croda Bianca,2666,46.9471101,11.8115749
Gabelspitze - Cima di Forca,3076,47.0057364,12.1212338
Kleiner Alprechtspitz,2855,47.0079515,12.1088444
Wagnerschneid Spitz - Cima Triangolo,2893,47.0585216,12.0595056
Dreiherrnspitze,3499,47.0691713,12.240752
Strudelkopf - Monte Specie,2307,46.6444985,12.2126758
Wasserfallkarspitze,2557,47.3438408,10.4853692
Schwellenspitze,2496,47.3493257,10.4912697
Ramstallspitze,2531,47.302725,10.3547349
Jöchlspitze,2226,47.2817295,10.3590718
Weisshorn,2653,46.7895889,9.6387758
Ritzlar,2528,46.7060986,11.5006501
Piz Nair,3057,46.5063953,9.7873706
Hochjoch,2365,46.5730683,10.9974588
Kreuzknöttler,2444,46.5917879,10.9975409
Muttegrub,2737,46.5765777,10.9568874
Peilstein - Il Sasso,2542,46.5688002,10.9816986
Rontscher - Monte dei Romici,2711,46.5797025,10.9671826
Schwarze,2616,46.5858702,10.9886147
Zielspitze - Cima di Tel,3008,46.69272,11.0131649
Drachenkopf,2303,47.3577088,10.9265357
Trumsspitze - Punta di Trumes,2914,46.671166,10.8923178
Grubenspitze - Punta delle Fosse,2899,46.6665677,10.8874738
Schröfwand,2815,46.7346823,10.8802322
Gehrenspitze,2367,47.3867606,11.1351354
Sulzfluh,2818,47.0126709,9.8396931
Petz - Monte Pez,2568,46.5118256,11.5748922
Peitlerkofel - Sass de Pütia - Sass de Putia,2875,46.6588572,11.8205348
Grüne Kuppe,2579,46.8618771,10.1115352
Saldurspitze - Punta Saldura,3433,46.7407134,10.7361131
Ramudlakopf - Cima Ramudla,3336,46.7241109,10.7236093
Kreuzspitzl,2089,47.5176952,10.918179
Kreuzspitze,2367,47.38394,10.43089
Kreuzkopf,2287,47.3846,10.41966
Vorderer Wilder,2240,47.3780492,10.4114125
Großer Wilder,2379,47.37022,10.38904
Kratzer,2427,47.30642,10.31748
Hochrappenkopf Nordgipfel,2425,47.2804198,10.2457455
Hochgehrenspitze,2251,47.3212941,10.207004
Hinterer Brunnenkogel,3438,46.9126255,10.8613294
Spitzige Lun - Piz Lun,2324,46.7062352,10.5773605
Hochjoch - Giogo Alto,2570,46.7107972,10.6018287
Hochpleisspitze,2349,47.295147,10.64242
Ortkopf,2314,47.3140984,10.615148
Egger Muttekopf,2311,47.3231814,10.6075039
Geireköpfe,2295,47.3155254,10.6950683
Unknown,2303,47.312948,10.693378
Kienberg,2218,47.2944293,10.711339
Brunnkarspitze,2609,47.2498197,10.626104
Bockkarspitze,2602,47.256005,10.56806
Nördliche Bockkarspitze,2501,47.260657,10.566082
Potschallkopf,2587,47.26754,10.569912
Hinterer Riefenkopf,2366,47.2774685,10.5688292
Wannenkopf,2319,47.2824248,10.560384
Mittlerer Karkopf,2606,47.1742498,10.8582572
Hoher Karkopf,2686,47.1709232,10.8463763
Blosse,2536,47.1816297,10.8473682
Schwendtkopf,2605,47.141285,10.8096613
Vernagl,3352,46.815015,10.751025
Teufelsegg - Cresta del Diavolo,3227,46.7861645,10.7603513
Westlicher Fineilkopf - Punta dei Corvi occidentale,3407,46.7749432,10.8194017
Östlicher Fineilkopf,3415,46.7743966,10.8228991
Kleiner Similaun - Piccolo Similaun,3363,46.7658053,10.8684277
Westliche Marzellspitze - Punta di Marzèl Ovest,3527,46.7699606,10.8962035
Rötenspitze,3393,46.7752477,10.9438015
Unknown,3424,46.804867,11.0390546
Liebener Spitze - Cima della Chiesa,3400,46.8203848,11.0757044
Seeberspitz - Cima del Lago,3282,46.8225182,11.0834481
Granatenkogel - Monte dei Granati,3304,46.8383484,11.070319
Königskogel - Monte Re,3050,46.8580817,11.0730491
Westl. Bankerjoch Spitz,2828,46.8898876,11.1016994
Schwarzwandspitz - Croda Nera di Malavalle,3358,46.9450441,11.168124
Wilder Pfaff - Cima del Prete,3456,46.9657531,11.1642893
Vordere Hintereisspitze,3437,46.8324003,10.782986
Unknown,3363,46.8869962,10.810151
Unknown,3369,46.8857967,10.8160657
Unknown,3471,46.8866082,10.8396734
Hinterer Brochkogel,3635,46.8860055,10.8497806
Kreuzerschneide,3655,46.8882748,10.8717643
Unknown,3549,46.8899573,10.8759759
Taufkarkogel,3362,46.8853914,10.8876652
Unknown,3284,46.898395,10.910463
Unknown,3214,46.906542,10.913117
Unknown,3176,46.910942,10.914015
Mutkogel,3312,46.915062,10.919742
Tiefenbachkogel,3309,46.9191127,10.9191605
Innere Schwarze Schneide,3369,46.924046,10.921151
Pitztaler Jochköpfle,3023,46.9412761,10.9191825
Nördlicher Polleskogel,3032,46.9443447,10.9196235
Dreizeiger,2980,46.945547,10.925968
Zweizeiger,2975,46.946723,10.928302
Roter Turm,2966,46.953873,10.933452
Rotkogel,2947,46.9673274,10.9490929
Roßkirpl,2942,46.9709913,10.9509664
Breitlehner,2794,46.9831724,10.9629781
Lange Wand,2876,46.987645,10.968442
Grieskogel,2909,46.9907568,10.9711137
Pollesfernerkopf,3015,46.946595,10.918032
Gschrappkogel,3194,46.961392,10.906373
Wassertalkogel,3247,46.9670664,10.9052619
Sonnenkogel,3170,46.9737798,10.9014443
Ampferkogel,3186,46.9964172,10.9135393
Silberschneide,3343,46.9998046,10.9141338
Unknown,3280,47.013431,10.9105694
Hoher Kogel,3296,47.0163218,10.9125432
Unknown,3087,47.0228982,10.9175962
Jochkogel,2972,47.0301472,10.8979167
Unknown,2925,47.0384017,10.8993936
Vorderer Feuerkogel,2955,47.0558888,10.8913922
Unknown,2940,47.057336,10.8923946
Dristenkogel,2996,47.0626184,10.888609
Grießkogel,2980,47.066489,10.8857435
Langkarlesschneid,3044,47.0730837,10.8859935
Plattigkogel,3092,47.0769224,10.885519
Hohe Seite,2852,47.0866807,10.9007621
Gleirscher Fernerkogel,3189,47.113872,11.0635644
Kreuzjöchel,2589,47.113908,10.731418
Weiter Karkopf,2777,47.162385,10.836638
Blockkogel,3098,47.0853872,10.8805947
Hairlacher Seekopf,3040,47.0986125,10.860518
Riegelkopf,2945,47.1352914,10.8264938
Brechkogel,2918,47.1480317,10.8326682
Murmentenkarspitze,2784,47.1522562,10.8299411
Ölgrubenkopf,3392,46.906448,10.775308
Vordere Ölgrubenspitze,3456,46.9082376,10.7734316
Bliggspitze,3454,46.91803,10.786113
Eiskastenspitze,3373,46.92972,10.791755
Südlicher Hapmeskopf,3240,46.9450406,10.7822154
Nördlicher Hapmeskopf,3292,46.94926,10.784343
Löcherkogel,3326,46.9591154,10.7911277
Rostizkogel,3392,46.968728,10.7949315
Unknown,3291,46.973019,10.7994751
Watzespitze,3532,46.9896687,10.7953848
Unknown,3232,47.0015461,10.793775
Mittlerer Sonnenkogel,3130,47.023398,10.814683
Östlicher Sonnenkogel,3163,47.0245655,10.8210763
Großer Dristkogel,3059,47.049987,10.801183
Kleiner Dristkogel,2934,47.0546,10.800658
Wallfahrtsköpfl,2850,47.058873,10.800662
Peischlkopf,2913,47.0651559,10.7921137
Steinmanndl,2898,47.074547,10.789865
Vorderer Stupfarri,2870,47.08041,10.78616
Danzebell - Cima Dentrovalle,3110,46.779997,10.6344177
Niederjoch - Giogo Basso,2460,46.7030421,10.5946688
Piz Cotschen,3030,46.8131622,10.1769755
Salaaser Kopf,2744,46.9539885,10.3278196
Gamserrugg,2076,47.1582296,9.3333559
Mittlere Plattspitze,2680,47.3958052,10.9903473
Kastenkopf,2129,47.4318938,10.4715051
Grüner Kopf,2212,47.3541808,10.3818123
Jochspitz,2232,47.3543255,10.3835611
Knappenkopf,2071,47.4430829,10.4731457
Fuchskarspitze,2314,47.39108,10.4291
Hoher Ifen,2230,47.3546808,10.100211
Kesselspitz,2284,47.399985,10.434339
Hoher Kamm,2375,47.3936266,11.029522
Nördliche Fuchskarspitze,2252,47.39652,10.43043
Kleiner Wanner,2548,47.3963394,11.0397076
Zugspitzeck,2815,47.4175695,10.9723451
Lärchwand,2186,47.40684,10.43742
Ponten,2045,47.4857363,10.4513779
Hählekopf,2058,47.346631,10.070713
Butzenspitze,2547,47.228768,10.0744894
Warther Horn,2256,47.251725,10.1564079
Mittagsspitze,2370,47.241201,10.1964487
Kleine Rappenspitze,2412,47.2386051,10.1989437
Schlanterkopf,2524,47.0226814,10.6944633
Gamsköpfe,2806,47.0256175,10.7098805
Ober-Rauhekopf,2811,47.1724875,10.5334694
Schusterkogel,2207,47.349176,12.4985966
Muttlerkopf,2744,46.896049,10.6059763
Schönkarlespitze,2928,46.880004,10.6169067
Südlicher Seekarkopf,3059,46.872037,10.619188
Nauderer Hennesiglspitze - Monte Cantone,3045,46.864403,10.62419
Mataunkopf - Cima Mataun,2892,46.8478404,10.5810567
Unknown,2960,46.840898,10.5582236
Klopaier Spitze - Piz Clopai,2922,46.8372666,10.5461739
Bergkastelspitze - Cima Castello,2920,46.8468669,10.5563765
Kleine Vallüla,2643,46.9325072,10.1077148
Ballunspitze,2671,46.9552706,10.1349973
Grieskopf,2754,46.9828817,10.1715678
Zirmesspitze,2945,46.995412,10.68087
Pfroslkopf,3148,46.977603,10.6893531
Taufererkopf,3067,46.967865,10.685997
Tauferer Spitze,3047,46.96146,10.682405
Glockhaus,3101,46.956087,10.686102
Bergler Fernerkopf,3104,46.950423,10.682675
Arzkopf,2860,46.9523248,10.6674212
Serneskopf,2703,46.9739535,10.6560481
Feichtner Karlspitze,2916,47.0155504,10.7079423
Alter Mann,2887,47.011232,10.7113003
Kuppkarlesspitze,2992,46.9988654,10.7070113
Äußere Rifekarspitze,3001,46.9889878,10.7044956
Unknown,2980,46.9850636,10.6989185
Innere Rifekarspitze,3004,46.9828993,10.6982098
Schwarzkogel,2030,47.3686142,12.3439003
Hintere Hintereisspitze,3486,46.822634,10.7638613
Zinne,3381,46.82673,10.758507
Unknown,3143,46.8563848,10.6946346
Hintere Karlesspitze,3160,46.857925,10.693242
Weißseekopf,3046,46.8676509,10.6902404
Nasse Wand / Naßwandspitze,3092,46.868265,10.682063
Naßwandegg,3066,46.87057,10.677708
Unknown,3077,46.8702739,10.6726708
Hennesiglspitz - Punta della Gallina,3144,46.8754951,10.6673854
Rifflkarspitze,3219,46.90053,10.674398
Rotschragenspitze,3113,46.909578,10.661922
Rotschragenspitze (Vorgipfel),3113,46.912412,10.662605
Kaiserspitze,3090,46.9209643,10.6649012
Platzerspitze,3098,46.9257038,10.6671188
Hintere Gebhardspitze,3110,46.933067,10.675207
Vordere Gebhardspitze,3118,46.936218,10.67831
Schwarzseekopf,3132,46.937233,10.68362
Westlicher Hennesiglkopf - Croda Ovest della Gallina,3105,46.8687636,10.6557048
Oberplattkopf,2789,47.0476646,10.3012701
Fatlarspitze,2986,47.0520317,10.2867644
Seßladspitze,2906,47.0705129,10.2931023
Madaunspitze,2961,47.0763223,10.2973095
Kreuzjochspitze,2919,47.0792824,10.3060888
Beilstein,2749,47.0815068,10.3239028
Hohe Spitze,2796,47.091446,10.3462594
Kleingfallkopf,2440,47.1009192,10.4503298
Simeleskopf,2804,47.1765617,10.5023138
Mittlere Bocksgartenspitze,2941,47.1711079,10.4779916
Südliche Bocksgartenspitze,2939,47.1695886,10.478339
Stierlochkopf,2788,47.1792618,10.433182
Grießlspitze,2830,47.1836319,10.4353764
Parzinnspitze,2613,47.2390194,10.5757336
Tagkarkopf,2622,47.2285664,10.6096072
Bergwerkskopf,2728,47.2252337,10.6088322
Westlicher Maroikopf,2522,47.114759,10.1583218
Maroispitze,2548,47.1096517,10.1560918
Kogl,2505,47.1201856,10.3242123
Gamskarspitze,2621,47.116277,10.3233162
Hochkarkopf,2772,47.1143221,10.3137375
Riffelspitze,2936,47.0860024,10.2985058
Gsallkopf,3277,47.0380297,10.8051995
Rofelewand,3353,47.0324015,10.8184731
Hahnleskopf,2210,47.2287045,10.3154725
Innere Quellspitze - Cima della Sorgente di Dentro,3514,46.7882404,10.7307191
Gaishorn,2247,47.4697891,10.4759937
Hochjoch,2520,47.0660098,9.9883293
Zamangspitze,2386,47.0515391,9.9749026
Salaruelkopf,2841,47.0614067,9.6774508
Frastafaller Spitz,2568,47.0319118,10.0790701
Albonakopf,2482,47.0237811,10.123989
Fädnerspitze,2788,46.983687,10.1599238
Rote Wand,2704,47.1863146,9.9850901
Große Wildgrubenspitze,2753,47.1649798,10.1264411
Naafkopf,2571,47.0607725,9.6070544
Gümplespitze,2518,47.1943657,10.1968456
Roggspitze,2747,47.1653655,10.2091987
Valluga,2809,47.1575747,10.2130938
Wolfendorn - Spina del Lupo,2774,46.9841927,11.5377973
Geigenspitze - Cima Posta,2334,46.9938288,11.5282001
Rotjoch,2372,47.2096334,11.0684391
Zwieselbacher Rosskogel,3077,47.1634944,11.047831
Glattwang,2376,46.8808724,9.7143103
Hochfeiler - Gran Pilastro,3509,46.9724019,11.7275895
Kleiner Möseler - Piccolo Mèsule,3405,46.9914829,11.7866666
Möselernock,3297,46.9909324,11.794748
Rossruggspitz - Dosso di Cavallo,3298,46.9917841,11.8037412
IV. Hornspitz,3198,46.9984327,11.8401245
I. Hornspitz,3172,47.0001268,11.8523567
Schwarzenstein - Sasso Nero,3369,47.0100814,11.8740569
Östliche Floitenspitze - Cima di Floite Est,3154,47.0230684,11.9011099
Tribbachspitze - Punta di Rio Torbo,3267,47.0289394,11.9146361
Großer Löffler - Monte Lovello,3378,47.0325265,11.9156504
Keilbachspitz - Punta del Conio,3093,47.0334303,11.9469105
Kasseler Spitze,2952,47.0388831,11.9515221
Grüne Wand - Croda Verde,2947,47.0434667,11.9567057
Gfallenspitz - Punta del Cavallo,2964,47.0405362,11.9684859
Wollbachspitz - Punta di Valle,3210,47.0500485,11.9795303
Sonnwand,2852,47.0548191,12.0323873
Rauchkofel - Monte Fumo,3251,47.076046,12.0919742
Winkelkopf,2857,47.0732269,12.1189224
Südlicher Windbachspitz,2867,47.0773567,12.1335543
Dreiecker - Cima di Campo,2892,47.0806698,12.1360244
Hochfeld,2350,47.1836043,11.9248777
Gramaijoch,2017,47.4028537,11.5859531
Unknown,2526,47.399487,11.46382
Unknown,2545,47.4023135,11.461659
Birkkarspitze,2749,47.4112946,11.4376548
Piz Lischana,3105,46.7695118,10.345249
Unknown,3044,46.7633042,10.3508332
Piz Minschun,3068,46.8313641,10.2413945
Hüenerchopf,2171,47.024243,9.3275983
Gamsspitzl,2888,47.0993844,12.2688049
Steinjoch - Monte Sasso,2187,46.9951708,11.4699681
Kreuzjoch - Monte Croce,2242,46.9914267,11.4604613
Rosskopf - Monte Cavallo,2189,46.9144518,11.3840673
Piz Martegnas,2670,46.57723,9.5295262
Piz Cartas,2713,46.5691622,9.5142906
Obere Wettersteinspitze,2297,47.4269594,11.1910129
Piz Tschütta,3254,46.9036109,10.3438183
Ottenspitze,2192,47.054518,11.5474126
Isisizer Rosswis,2334,47.13327,9.3852
Selun,2205,47.1523857,9.2548743
Glockhauser,3021,46.8661462,10.6504159
Wölfeleskopf - Cima del Lupo,2903,46.8505997,10.5904715
Mitterlochspitz - Punta Luco di Mezzo,3176,46.7995216,10.6527936
Falbenairspitze - Punta di Val Benair,3199,46.8045368,10.6613128
Gaislachkogel,3056,46.9423363,10.9671463
Piz Blaisun,3200,46.6031885,9.8628832
Spi da Baselgia,2945,46.7171677,10.1281837
Tiefkarspitze,2430,47.4377328,11.3212433
Brunnsteinspitze,2180,47.4056113,11.2872676
Fluchtwand,2332,46.9261692,10.5115627
Schmalzkopf,2724,46.9314549,10.5359908
Labauner Köpfl,2207,46.9104224,10.5203083
Piz Lat,2808,46.8477844,10.468893
Kleine Angelus Spitze - L'Angelo Piccolo,3318,46.5580278,10.6482874
Hintere Schöntaufspitze - Punta Beltovo di Dentro,3325,46.5028467,10.6285696
Croda di Cengels - Tschenglser Hochwand,3375,46.5642975,10.629135
Kleiner Ifinger - Piccolo Ivigna,2554,46.6918629,11.2577275
Großer Ifinger - Picco Ivigna,2581,46.6922971,11.2566829
Vallesinspitze,2769,47.1814028,10.3000385
Elferspitze,2421,47.1920949,10.3100114
Zwölferspitze,2511,47.1870822,10.3048245
Pimig,2406,47.2247543,10.2735874
Fallersteisspitze,2634,47.1601472,10.2495343
Alplespleisspitze Südgipfel,2648,47.1969292,10.3432082
Piz Terri,3149,46.6000305,9.0340868
Fanellhorn,3123,46.5478322,9.1305778
Chilchalphorn,3039,46.5332704,9.1541863
Surettahorn - Pizzo Suretta,3027,46.5095342,9.3623964
Piz Calderas,3397,46.5364006,9.6959831
Piz d'Agnel,3205,46.5114307,9.7021543
Scalettahorn,3067,46.6934303,9.9423188
Zuckerhütl,3508,46.9643116,11.1537965
Schussgrubenkogel,3211,46.968463,11.1086161
Litnisschrofen,2068,47.4666309,10.5633024
Masnerkopf,2826,47.0125942,10.4730217
Hexenkopf,3034,47.0212165,10.4692811
Simmering,2096,47.2781227,10.8665958
Zunterkopf,2028,47.2738076,10.8609996
RauherKopf,2111,47.2630911,11.053565
Oberalpl,2613,47.2509392,11.0530275
Narrenkopf,2450,47.2601845,11.0695767
Hocheder,2796,47.2522684,11.0710747
Hühnereggen,2650,47.160475,11.1744805
Wenten,2640,47.1568575,11.1806097
Windegg,2570,47.1760824,11.1815067
Karlsgrat,2380,47.1622097,11.1859286
Arweswände,2500,47.1556525,11.1868071
Schafkogel,2560,47.1445901,11.2314289
Schwarze Wand,2780,47.1384231,11.2272247
Schaflegerkogel,2400,47.1549047,11.2369838
Angerbergkopf,2380,47.1628943,11.2380808
Breitschwemmkogel,2260,47.1756196,11.2443393
Grieskogel,2158,47.1881746,11.2450073
Sonntagsköpfl,2100,47.1666605,11.2631048
Steinkogel,2580,47.1393767,11.2591865
Schlicker Seespitze,2808,47.1452891,11.2729663
Riepenwand,2760,47.149059,11.274154
Große Ochsenwand,2700,47.1544487,11.2785197
Kleine Ochsenwand,2520,47.1600478,11.2790195
Schlicker Zinnen,2600,47.1681646,11.2856051
Hochtennspitze,2549,47.1711558,11.2901174
Pleisen,2250,47.1924045,11.2807835
Axamer Kögele,2097,47.2000717,11.277961
Widdersberg,2340,47.1802839,11.2977988
Schneiderspitze,2160,47.1852114,11.3082903
Pfriemeswand,2100,47.2012341,11.3277824
Höllkopf,2194,47.3417571,10.9181793
Entschenkopf,2043,47.4365673,10.3313126
Eggberg,2202,46.9577935,9.8289787
Zapfkopf,2288,47.016014,10.0411082
Grappeskopf,2205,47.0132294,10.028174
Spronser Rötelspitz - Cima Rosa di Sopranes,2625,46.720995,11.0941094
Mutspitze - Monte Muta,2291,46.7124727,11.121239
Im Hinteren Eis - Punta della Vedretta,3269,46.7934778,10.7822244
Rauhjochspitz - Monte Scabro,2926,46.8286255,11.1140058
Sefiarspitz - Monte Tavolino,2852,46.7724245,11.1048429
Zerminiger - Cima Cermigna,3110,46.6700622,10.8179158
Hohes Kreuzjoch - Monte Croce,2950,46.6776687,10.6599769
Litzer Spitz - Punta d'Alliz,3206,46.6875303,10.6869115
Madatschknott - Montaccio,3081,46.6782514,10.6765294
Adlerkopf,3045,46.8328981,10.7056322
Endkopf (Jaggl) - Cima Termine,2627,46.7921388,10.5654422
Hohe Weiße - Cima Bianca Grande,3277,46.7455839,11.0373396
Vordere Karlesspitze - Cima di Càrles Meridionale,3233,46.8527691,10.6932512
Krapfenkarspitz - Quaira Tonda,2711,46.9289695,11.2361457
Lazinser Rötelspitze - Cima Rosa di Sopranes,3038,46.7233875,11.0490698
Mittereggspitze - Punta di Mezzo,2909,46.7618951,10.6023765
Nockspitz - Cima del Dosso,3009,46.8432277,10.6843645
Pleisköpfl - Cima Plaies,2412,46.7791155,10.5616976
Stoanmandl - Ometto,2461,46.7395241,10.5817448
Tschigat - Gigot,2999,46.719869,11.0600507
Vermoi Spitze - Punta Vermoi,2929,46.6592446,10.8697752
Zunderspitz - Cima dell'Incendio,2380,46.9005916,11.2677126
Wildhauser Schafberg,2373,47.2294373,9.3520965
Wildhauser Schafberg (Vorgipfel),2363,47.2288386,9.3519232
Altmann,2435,47.239538,9.3715741
Gamsjoch Westgipfel,2438,47.4178377,11.5454456
Rittner Horn - Corno Renon,2260,46.6150404,11.4613455
Schwarzseespitze - Cima Lago Nero,2070,46.5961209,11.4529135
Falknis,2565,47.0504402,9.5640342
Vilan,2377,47.0125778,9.603173
Schafbergspitze - Cima delle Pecore,3306,46.5634775,10.6469718
Vertainspitze - Cima Vertana,3545,46.537427,10.6359581
Schildspitze / Punta dello Scudo,3461,46.5274901,10.6491766
Hohe Angelusspitze - L'Angelo Grande,3521,46.5449175,10.6483827
Äußere Pederspitze - Punta Peder di Fuori,3406,46.5292547,10.6708682
Schluderspitze - Punta di Slúder,3230,46.5478383,10.6997123
Laaser Spitze - Punta di Lasa,3305,46.5622611,10.717988
Glittner Joch - Giogo di Colletto,2191,46.725335,11.8299839
Nock - Cima del Dosso,2715,46.7168349,10.8315035
Larmkogel,3017,47.17408,12.4035074
Tguma,2165,46.7187329,9.3560126
Neunerkogel,2640,47.2003371,11.0329418
Zufrittspitze - Gioveretto,3439,46.5018817,10.7822601
Spitzmeilen,2501,47.0240531,9.2364844
Kleines Hasenohr,3136,46.5418442,10.8400505
Sandegg,2216,47.3595811,10.7010867
Kreuzjoch,2398,47.06072,9.9748403
Hoch Büel,2105,46.6696336,9.350701
Gürgaletsch,2441,46.7972091,9.5826587
Wissmeilen,2483,47.0258279,9.2300152
Wissgandstöckli,2488,46.9951688,9.24991
Hochalmkreuz,2192,47.4243045,11.4285387
Kleiner Peitlerkofel - Piccolo Sas de Pütia,2813,46.6578751,11.8159611
Maurer Berg - Monte Muro,2332,46.7043974,11.8211438
Villanderer Berg - Monte Villandro,2509,46.6585779,11.4190015
Krähe,2010,47.5527964,10.8252366
Großer Gabler - Monte Forca Grande,2574,46.6902465,11.7629974
Sechszinkenspitze,2213,47.2965653,10.1942681
Hahnenköpfle,2082,47.35783,10.10215
Seekogel,2412,47.2046409,10.4752891
Gressenstein,2216,47.3301373,12.0224576
Großer Beil,2309,47.3414855,12.0270465
Lämpersberg,2202,47.3557564,12.0252978
Seekopf,2189,47.3462375,12.0245088
Kleiner Beil,2197,47.3498344,12.0269567
Gedrechter,2217,47.2667793,11.8280287
Zwölfihorn,2744,46.8898738,9.1697158
Muttenbergen,2956,46.8438214,9.0369302
Muttenchopf,2482,46.8515946,9.0151076
Piz Darlux,2642,46.6228565,9.7959419
Tschimas Da Tisch,2872,46.6165729,9.8152223
Rinnenspitze,3000,47.0857209,11.1411997
Innere Sommerwand,3123,47.058479,11.1509164
Basslerjoch,2829,47.0712396,11.2098999
Grubigstein,2230,47.3827889,10.8421279
Oberer Rißkopf,2049,47.5488775,11.1852668
Bischof,2033,47.5404528,11.1757851
Galtberg,2537,46.7281908,10.4933699
Pizzo Tamborello,2667,46.5040355,9.310909
Monte Serra,3093,46.6106127,10.1067613
Cima Dei Buoi,2974,46.6034003,10.0995155
Pizzo Fier,3058,46.5976531,10.0977656
Monte Saliente,3047,46.584961,10.1027662
Punta dell'Acqua,3121,46.6109323,10.1390354
Corna Dei Cavalli,2990,46.582852,10.1188249
Corno Brusadella,2363,46.5806019,10.1438587
Il Motto,2712,46.568583,10.1271435
Frümsel,2263,47.1523229,9.2660518
Brisi,2279,47.1531901,9.2774244
Zuestoll,2235,47.1540996,9.2854794
Schibenstoll,2234,47.1543551,9.2954853
Hinterrugg,2306,47.1536351,9.3052536
Punta Cassana,3007,46.5669408,10.0852963
Pizzo Cassana,3070,46.5751247,10.0786601
Punta Tropione,2944,46.5771852,10.0953279
Cima Morteir,2704,46.5107969,10.0944542
Vetta Blesaccia,2795,46.5261532,10.0907973
Pizzo del Leverone,3051,46.5275144,10.0511866
Pizzo Cantone,2904,46.5032046,10.0818292
Corna Dei Gessi,2684,46.5054974,10.0687352
Monte Cotschen,3090,46.5101233,10.0428234
Monte Castelletto,2529,46.500489,10.1893739
Monte della Neve,2785,46.5089396,10.1493373
Monte Sponda,2558,46.5172124,10.1597877
Le Piazze,2459,46.5219384,10.1970004
Il Mottolino,2347,46.531985,10.1624233
Monte Crapene`,2430,46.5473843,10.1693244
Crap de la Parè,2390,46.5533944,10.1590307
Cima Paradiso,2888,46.594912,10.1968776
Cima del Fopel,2922,46.5960081,10.1494126
Pizzo Murtaruo,2918,46.6157179,10.1624724
Punta Lago Nero,2694,46.5177011,10.2204375
Pizzo Aguzzo,2570,46.5516223,10.236491
Monte Torraccia,2784,46.5393588,10.2093564
Cima di Pra` Grata,2789,46.5751707,10.2157673
Pizzo del Ferro,3031,46.5648897,10.196535
Monte La Tagliata,2161,46.6158864,10.23142
Monte delle Scale,2520,46.5018581,10.3246561
Monte Trela,2605,46.5087543,10.2701198
Cime di Plator,2910,46.5122767,10.2846796
Cima Doscopa`,2794,46.5223335,10.2579853
Monte Solena,2912,46.5333455,10.3340759
Piz Schumbraida,3124,46.542714,10.338229
Monte Cornaccia,3142,46.5494119,10.3081133
Piz Magliavachas,3088,46.5623508,10.2918713
Piz Mon'Ata,2938,46.5776326,10.269494
Monte Forcola,2896,46.5558713,10.3519471
Monte Scorluzzo,3094,46.5218846,10.4424515
Monte Braulio,2976,46.5324796,10.3877826
Monte Radisca,2967,46.5270165,10.3893043
Punta di Rims,2940,46.5440531,10.3962358
Monte Pedenolo,2783,46.5349022,10.3624292
Piz Umbrail,3033,46.550908,10.4158245
Reither Spitze,2374,47.3231505,11.2359573
Resciesa Dedora - Ausserraschötz - Rasciesa di Fuori,2283,46.6036704,11.6562969
Mastaunpichl - Monte Lavez,2290,46.7070362,10.8539288
Rappenseekopf,2469,47.2809839,10.2548226
Fürschießer,2271,47.32824,10.32983
Muttlerkopf,2368,47.3144134,10.3412333
Höfats Zweiter Gipfel,2258,47.3672021,10.3494627
Zafernhorn,2107,47.270185,9.925211
Wildes Gräshorn,2258,47.2713333,9.9683333
Wannenkopf,2006,47.313175,9.900372
Sünser Spitze,2061,47.303179,9.83475
Runder Kopf,2014,47.3334358,9.9364351
Ragazer Blanken,2051,47.304837,9.85242
Portlahorn,2010,47.290608,9.84977
Klippern,2066,47.316211,9.916066
Hohes Licht,2005,47.310697,9.876464
Hochblanken,2068,47.311782,9.869427
Annalper Stecken,2124,47.2784277,9.9700411
Glatthorn,2133,47.2652722,9.8799539
Arbiskogel,2048,47.2058032,12.0427668
Kirchspitze,2312,47.1915502,12.0431273
Isskogel,2263,47.2485159,12.0131724
Niederer Burgstall,2436,47.1353469,11.2883195
Secёda - Monte Seceda,2519,46.6005922,11.7257836
Fundusfeiler,3079,47.1124057,10.8703594
Laugen - Monte Luco,2434,46.5345684,11.0858434
Wannenspitze,2362,47.275375,10.4880672
Scheibler,2978,47.0586914,10.222036
Wetterkreuzkogel,2591,47.2054729,10.9499778
Mottakopf,2160,47.0861422,9.7185673
Panüelerkopf,2860,47.0667247,9.6795749
Felsenkopf,2835,47.0543812,9.7145787
Totalpköpfe,2580,47.0450675,9.714723
Schafköpfe,2806,47.0552976,9.6877399
Wildberg,2788,47.0677306,9.7022211
Zirmenkopf,2760,47.0567796,9.7198532
Kanzelköpfe,2371,47.042501,9.741435
Lüneregg,2297,47.0370659,9.7474748
Rossberg,2452,47.0470467,9.7668286
Kirchlispitzen,2552,47.0388624,9.7688122
Südl. Schafgafall,2414,47.0646804,9.7664176
Zaluandakopf,2437,47.0534037,9.7764773
Freschluakopf,2314,47.0585121,9.7867812
Seekopf,2698,47.0576247,9.7363525
Lamsenspitze,2508,47.3826816,11.5911944
Piz Cotschen,3026,46.5418613,10.4573786
Westlicher Wengenkopf,2235,47.42284,10.35032
Östlicher Wengenkopf,2207,47.42647,10.36175
Rotspitz,2034,47.4595011,10.369341
Kleiner Daumen,2197,47.4470862,10.3861731
Liechelkopf,2384,47.296087,10.179743
Lichtspitze,2356,47.3000883,10.5292454
Zirmspitze,2393,47.2950633,10.534419
Zirmebenjoch,2407,47.2939242,10.5384128
Karlesspitze,2378,47.2737556,10.4894397
Bretterspitze,2608,47.3330333,10.461487
Wildebnerspitze,2295,47.2578409,10.4371029
Leiterspitze,2750,47.2233058,10.5216607
Croda del Becco - Sas dla Porta - Seekofel,2810,46.6749918,12.0726392
Frühmesser,2233,47.2978365,12.2675483
Glasfelderkopf,2270,47.4029,10.43161
Greitjochspitze,2319,47.2245045,10.4057601
Vorderer Sonnenkogel,2204,47.2489079,10.3946942
Innere Wetterspitze,3053,46.9966066,11.2466993
Wolfeskofel - Monte Lupo,2050,46.973953,11.9019818
Dreieckspitze,3031,46.9640751,12.1310686
Bärenluegspitze,2960,46.9606249,12.125228
Vordere Platteinspitze,2562,47.269834,10.6913668
Schafsiedel,2447,47.3145209,12.1142724
"Partenkirchner Dreitorspitze, Westgipfel",2633,47.4063481,11.1225566
Sarlkofel - Monte Serla,2378,46.7030134,12.1929332
Sarlkopf - Punta di Serla,2314,46.6823032,12.1829106
Kirchler Schroppen - Rocce della Chiesa,2280,46.6770396,12.1706822
Unknown,2766,46.5798692,12.2903119
Cime Ciadin dei Toce,2283,46.5906392,12.2822795
Gamskogel,2659,47.1429362,11.2599064
Schwarzhorn,2812,47.1358138,11.2272271
Keeskogel,3291,47.1364843,12.3118408
Zinsnock,2430,46.9199526,11.830711
Wurmtaler Spitz - Giogo del Corno,2343,46.9167738,11.8376048
Hoher Lorenzenberg - Monte San Lorenzo,2313,46.9726981,11.432411
Weißwandspitze - Parete Bianca,3016,46.9835433,11.3003047
Bielerspitze,2545,46.9273484,10.0981884
Golmer Joch,2124,47.0618976,9.8355835
Kreuzjoch,2261,47.0564586,9.8173301
Geißspitze,2334,47.0447054,9.827721
Latschätzkopf,2219,47.0566874,9.8266872
Vorder Glärnisch,2328,47.0220637,9.0411883
Vrenelisgärtli,2903,47.0077937,9.0168896
Ruchen,2901,47.0106178,9.0013565
Versettla,2368,46.9656798,9.9955483
Kalkwandspitze - Cima della Stanga,2388,46.9586317,11.5109568
Rosskopf,2576,47.2212498,11.7524581
Rauhenkopf,2258,47.2258614,11.8181022
Kreuzjoch,2338,47.2330514,11.8008668
Kanzelwand,2058,47.3347816,10.2077026
Seebergl,2705,46.932698,11.7630283
Schreckwand,2505,46.9434696,11.7979224
Rautispitz,2283,47.0712557,9.0283787
Pizol,2844,46.9591511,9.3867223
Punta Sud di Fanes - Südliche Fanisspitze,2989,46.5461575,12.0184456
Innerer Knorrkogel,2884,47.1020135,12.4198634
Mahnkopf,2093,47.4123538,11.5078912
Col de Ciaulonch,2114,46.533343,11.7225876
Guli,2341,47.012927,9.2948129
Piz Forcia Rossa III,2791,46.5776153,12.0354034
Säuling,2048,47.5349891,10.7552771
Köllenzeiger,2226,47.139768,11.1239821
Östliche Karwendelspitze,2537,47.4448563,11.421433
Gran Cir - Große Cirspitze - Grande Cir,2592,46.5585189,11.8061912
Zollberg,2225,47.1430378,10.7754114
Misthaufen,2436,47.2034531,9.9973166
Klesenzahörner,2276,47.208485,9.9798337
Mittagstein,2035,47.1022125,10.0269306
Einserkofel - Cima Una,2698,46.6393134,12.3480137
Piz de Lavarela - La Varella,3055,46.5851256,11.9711128
Gänsekragenspitze - Punta di Campo,2322,46.8196021,11.4356525
Kalkwand,2564,47.0467375,11.3191794
Ilmspitze,2692,47.0574309,11.3301015
Cristallino d'Ampezzo,3008,46.5816244,12.189972
Pico Setsas,2429,46.516128,11.958978
Rossgruber,2156,47.3285393,12.3352559
Kleiner Rettenstein,2217,47.3370323,12.3419336
Hippoldspitze,2642,47.1978304,11.6680766
Sassongher,2665,46.5679412,11.8642984
Großer Waxenstein,2276,47.4462043,11.0232944
Kleiner Waxenstein,2136,47.446679,11.0301167
Hinterer Waxenstein,2268,47.4439368,11.0174743
Nördliche Riffelspitze,2242,47.4388036,11.005791
Südliche Riffelspitze,2262,47.437218,11.0037847
Große Riffelwandspitze,2625,47.4282738,10.9924798
Kleine Riffelwandspitze,2543,47.4293162,10.996723
Riffeltorkopf,2230,47.4350764,10.9983071
Mittlere Höllentalspitze,2740,47.4206907,11.0198273
Innere Höllentalspitze,2741,47.4184937,11.0105717
Brunntalkopf,2260,47.4108271,11.016792
Äußere Höllentalspitze,2715,47.4209398,11.027893
Vollkarspitze,2630,47.4217228,11.034696
Blassenspitze,2420,47.4219531,11.0545854
Östliche Plattspitze,2680,47.3964573,10.9926825
Karkopf,2469,47.3552914,11.0271825
Hohe Wand / Hochwand,2719,47.3585248,11.0154506
Schartlkopf,2810,46.8999422,10.5619584
Schafkarkopf,2678,46.8925906,10.5718322
Tscheyegg,2666,46.888837,10.5707597
Hauerkogel,2491,47.0653683,10.93586
Hauerseekogel,3059,47.0480115,10.9207952
Felderkogel,3071,47.0464183,10.9177929
Rauher Oppen,2097,47.0748736,10.9293363
Hoher Kopf,2784,47.0101683,10.8902625
Wildgartenkogel,2556,47.0422915,10.8803712
Grabkogel,2651,47.0348205,10.8823986
Unknown,2627,47.0389841,10.8817065
Kleine Geige,3152,47.024371,10.9224232
Breiter Kogel,3256,47.0162488,10.9178343
Äußerer Hahlkogel,2655,47.024394,10.9527092
Innerer Hahlkogel,2734,47.0208993,10.9490197
Unknown,2690,47.0143083,10.9399485
Niederer Breitlehnkogel,2815,47.0291565,10.9302324
Weißmaurachkogel,3071,46.9912341,10.9093689
Schwarzseekogel,2931,46.9629487,10.9473695
Gransteinkogel,2801,46.9976882,10.9713491
Schartlaskogel,2784,47.0048156,10.9735538
Grabkogel,3052,46.9290669,10.8894793
Östlicher Salzachgeier,2466,47.2929819,12.1069927
Wankspitze,2209,47.3375771,10.9389327
Wurmsitzkogel,3079,46.9566839,10.909126
Mutzeiger,2277,47.1811031,10.8268531
Kreuzjochspitze,2675,47.157701,10.87308
Innerer Hoher Kogel,2832,47.1478868,10.8392131
Äußerer Hoher Kogel,2728,47.1501672,10.8483305
Dreirinnenkogel,2679,47.1424441,10.8470129
Südlicher Lehner Grieskogel,3038,47.1074355,10.8643706
Leierskopf,2812,47.1221398,10.867345
Rotpleiskopf,2894,47.0939261,10.864616
Äußerer Wartkogel,2552,47.0154126,10.9510854
Innerer Wartkogel,2590,47.014186,10.945286
Äußere Wilde Schneide,2991,47.0034031,10.9274004
Fotzenkarstange,3024,46.9963702,10.9276485
Vorderer Ampferkogel,2909,46.9981732,10.9403569
Graskogel,2766,47.0059887,10.9768932
Peerlerkogel,2709,47.0077772,10.9789662
Breitlehnerturm,2765,46.981469,10.9582398
Krahberg,2208,47.1457698,10.6262661
Stallkogel,2603,47.0872004,10.8067272
Aherkogel,2803,47.083756,10.7905411
Kitzmörder,2435,47.0917691,10.797175
Saxuirer Feuerkogel,2803,47.0773511,10.7973638
Schalwand,2942,47.0896865,10.775292
Stupfarriköpfle,2808,47.0858524,10.7773455
Hinterer Stupfarri,2896,47.0703528,10.7924875
Brehnkopf,3016,47.042566,10.7941666
Kaminspitz,2781,47.0486322,10.7933263
Unknown,2996,47.0451642,10.7889695
Unterer Muttler,2703,47.0501215,10.778989
Hochrinnegg,3027,47.0306504,10.7883585
Unknown,3067,47.0309112,10.7844673
Totenkarköpfl,3193,47.0284998,10.8197781
Katzenkogel,2650,47.0355872,10.8345917
Westlicher Sonnenkogel,3008,47.0251066,10.806073
Parstleswand Westgipfel,3091,46.9984599,10.817252
Weißer Kogel,2678,47.0092658,10.839015
Parstleskogel,2741,46.9976099,10.8474111
Östlicher Madatschturm,2829,47.000939,10.7817227
Westlicher Madatschturm,2777,47.0008834,10.7793968
Mittlerer Madatschturm,2837,47.0009112,10.7805597
Wazekopf,2918,46.9901839,10.7674756
Unknown,2977,46.9924997,10.7762897
Unknown,3382,46.9905179,10.7865075
Seekarlesschneid,3208,46.9810885,10.8168072
Hoher Kogel,3042,46.9798226,10.8315643
Zuragkogel,2891,46.9761018,10.8438714
Brandkogel,2677,46.9755144,10.8513784
Steinkogel,2635,46.9815029,10.8512164
Seekogel,3358,46.9717978,10.8102608
Wurmtalerkopf,3228,46.9385088,10.7959571
Grubenkarspitze,3002,46.9436191,10.8189991
Unknown,2821,46.9558478,10.8357137
Vorderer Eiskastenkopf,3087,46.9340291,10.8131061
Äußerer Bliggkopf,2896,46.9201782,10.7627771
Mittlerer Eiskastenkopf,3259,46.9169832,10.7965409
Gwurfjoch,2170,47.1593931,9.9641416
Kassianspitz - Cima San Cassiano,2581,46.7086294,11.4966426
Mitterschragen,2966,46.9890565,10.697222
Fissladkopf,3117,46.9431451,10.6876262
Atemkogel,3011,46.942625,10.7000395
Plattigkopf,3174,46.9274516,10.6759345
Südlicher Gamskopf,3110,46.9290442,10.6590231
Wannekopf,2880,46.9266436,10.6407631
Hochjoch,2896,46.9481387,10.6385774
Lahnkopf,2471,46.9691982,10.6223857
Rauher Kopf,2695,46.9669132,10.6342894
Blaue Wand,2567,46.9717033,10.6316776
Bruchkopf,3013,46.9065283,10.6503974
Höhlenspitze,3202,46.9007332,10.685721
Kaisergratspitze,3158,46.9032769,10.6925732
Ochsenkopf,2944,46.8959405,10.7043354
Westlicher Gratfernerkopf,3007,46.9101791,10.7009092
Östlicher Gratfernerkopf,3003,46.9107825,10.7040176
Plangeroßspitze,2942,46.9160427,10.71341
Riffljochturm,3237,46.8984626,10.6691483
Habicht,3094,46.8889866,10.6786344
Unknown,3111,46.8845392,10.6861824
Unknown,3090,46.8851961,10.6916251
Krummgampenturm,3126,46.8849932,10.6627529
Arzkarkopf,3121,46.8820964,10.663005
Östlicher Hennesiglkopf - Croda Est della Gallina,3116,46.8721186,10.6603251
Nördlicher Seekarkopf,3003,46.8778492,10.6201224
Brunnewandspitze,2982,46.8832749,10.6113669
Kleiner Schafkopf,2742,46.8741839,10.5836558
Gueser Kopf,2740,46.8841071,10.5770225
Arzkopf,2789,46.8696991,10.5910146
Unknown,2830,46.8658286,10.5909966
Valdafurnerkopf,2748,46.8968645,10.5548952
Gamorkopf,2769,46.9059145,10.5596154
Affenkopf,2626,46.910205,10.5734055
Gaißpleiskopf,2771,46.910925,10.5447274
Sunntigwaidschrofen,2552,46.9186949,10.5442882
Ulrichskopf,2457,46.9428833,10.5429125
Bazahlerkopf,2160,46.9231595,10.5053651
Rosskopf,2461,46.9388442,10.524912
Äußere Schwarze Schneide,3257,46.9377318,10.9524397
Unknown,3162,46.9311411,10.9410919
Unknown,3224,46.9341197,10.9455801
Rechter Fernerkogel,3298,46.9074373,10.8867033
Unknown,3154,46.9030131,10.9109207
Weißer Kogel,3407,46.8917016,10.9060718
Weißkarkogel,2995,46.8916588,10.9290388
Wildes Mannle,3019,46.8738153,10.8937315
Karleskopf,2901,46.938405,10.9097616
Mitterkamm,3219,46.9256642,10.8620943
Mitterkopf,3347,46.9210634,10.8540891
Vorderer Brunnenkogel,3396,46.9192652,10.856853
Schuchtkogel,3471,46.8976438,10.8756719
Schwarzkögele,3070,46.8669183,10.8320988
Petersenspitze,3472,46.8888019,10.8397175
Unknown,3376,46.8900878,10.8307698
Pitztaler Urkund,3198,46.8952631,10.8091743
Urkundkopf,2902,46.9019715,10.815469
Schwarzwandspitze,3467,46.8750917,10.7872157
Unknown,3417,46.8613731,10.7954635
Kleiner Rauher Kopf,2805,46.8685182,10.7609552
Großer Rauher Kopf,2989,46.8650567,10.7552187
Ehrichspitze,3420,46.8494284,10.7764492
Kesselwandspitze,3414,46.8485314,10.7980997
Hintere Guslarspitze,3147,46.8375556,10.8181727
Mittlere Guslarspitze,3128,46.8371047,10.8243607
Mittlere Hintereisspitze,3450,46.8266861,10.7751883
Mutspitze,3257,46.8314506,10.7957081
Hochvernaglwand - Croda Vernaga Alta,3433,46.8177559,10.7587925
Langtauferer Spitze - Punta Vallelunga,3528,46.8047214,10.7459997
Innerer Bärenbartkogel - Cima Barba d'Orso di Dentro,3557,46.7998489,10.7198864
Äußerer Bärenbartkogel - Cima Barba d'Orso di Fuori,3473,46.7965822,10.6996478
Äußere Quellspitze - Cima della Sorgente di Fuori,3385,46.7784582,10.7294888
Egg,3219,46.7905689,10.7760614
Steinschlagspitze - Punta delle Frane,2861,46.7728234,10.7700677
Hasenkofel - Monte della Lepre,2572,46.7686763,10.7703914
Großer Nörderberg,2885,46.8715479,10.7252559
Unknown,3062,46.8580375,10.7233315
Zahn,3376,46.8509164,10.7257337
Wiesjagglkopf - Cima di Càrles,3130,46.8625495,10.6968449
Hinterer Wurmkogel,3082,46.8804735,11.0858914
Schermerspitze,3116,46.8874336,11.084316
Kirchenkogel,3115,46.8992835,11.0817453
Kleiner Kirchenkogel,2862,46.9080038,11.0742564
Plattenkogel,2897,46.8907598,11.0780854
Vorderer Wurmkogel,2682,46.886355,11.0626079
Königskogel,3055,46.8585875,11.0722547
Hintere Schwenzerspitze,2875,46.866087,11.0819821
Mittlere Schwenzerspitze,2889,46.8696779,11.0830174
Vordere Schwenzerspitze,2904,46.8714927,11.0841147
Festkogel,3038,46.8521363,11.0510882
Nördliche Ferwallspitze,2957,46.8532929,11.0711967
Südliche Ferwallspitze,2996,46.8486923,11.0736281
Essener Spitze,3200,46.8352621,11.0767413
Hoher First - Monte Principe,3405,46.826586,11.080731
Racinespitz - Rosinhorn,3035,46.8310114,11.086735
Ebener First,3034,46.8259776,11.1010826
Imstspitze,3024,46.8273659,11.1048156
Grinolspitze - La Testa del Lago,2763,46.847997,11.1129423
Unknown,3302,46.820662,11.0812718
Kirchenkogel,3282,46.8245198,11.0640744
Hohe Mut,2653,46.8486772,11.0304818
Trinkerkogel,3150,46.8128272,11.060638
Scheiberkogel - Cima Rocciosa,3133,46.8080778,11.056919
Heuflerkogel - Monte del Cumulo,3238,46.8150492,11.0643921
Rotmooskogel,3336,46.8078941,11.0486411
Mittlerer Seelenkogel,3426,46.8089366,11.0349851
Vorderer Seelenkogel,3286,46.818812,11.0305023
Eiskögele,3228,46.8215542,11.0238564
Hangerer,3020,46.835311,11.0180806
Hochebenkamm,3166,46.8262953,11.0195021
Rotegg,3341,46.7941681,11.0374767
Langtalerjochspitze,3157,46.7851123,11.0333196
Hochwilde (Nordgipfel),3461,46.7679577,11.0190085
Annakogel,3336,46.7741292,11.0114791
Unknown,3208,46.7799801,11.000873
Unknown,3200,46.7852001,10.9960503
Schwärzenspitze,2980,46.8125867,10.9905886
Unknown,3166,46.7991202,10.9991573
Unknown,3200,46.7921603,11.0070923
Bankkogel,3310,46.7670909,10.9931932
Falschungsspitze,3363,46.7679963,10.9879698
Querkogel,3448,46.7832894,10.9674368
Kleinleitenspitze,3446,46.7955789,10.9623805
Hinterer Diemkogel,3398,46.8032934,10.9451884
Mittlerer Diemkogel,3340,46.8078918,10.9354412
Vorderer Diemkogel,3368,46.8109781,10.9230808
Unknown,3380,46.8224115,10.9573944
Mittlerer Spiegelkogel,3311,46.8320815,10.9477375
Vorderer Spiegelkogel,3087,46.8387461,10.9384807
Kleiner Ramolkogel,3349,46.8405745,10.9633716
Mittlerer Ramolkogel,3518,46.8460877,10.9630645
Nördlicher Ramolkogel,3428,46.848444,10.9699359
Manigenbachkogel,3314,46.8593292,10.9748796
Südlicher Latschkogel,3357,46.8642054,10.9730958
Nördlicher Latschkogel,3386,46.8657563,10.9735572
Gampleskogel,3399,46.8672665,10.9760082
Zirmeggenkogel,3229,46.8741706,10.9871323
Stockkogel (Zirmkogel),3278,46.8814051,10.9885504
Gampleskopf,3165,46.8685809,10.9575142
Innerer Grießkogel,3109,46.8957224,10.9995719
Nederkogel,3163,46.9070305,11.008866
Fanatspitze,3361,46.7714868,10.9629606
Mittlere Marzellspitze - Punta di Marzèl mezzo,3529,46.7679641,10.9048401
Mutmalkamm,3265,46.7909038,10.918078
Kasererwartl,3287,46.7559183,10.8825967
Hintere Faulwand - Croda Marcia,3416,46.757194,10.8957825
Marzellkammspitze,3149,46.7808712,10.8720402
Hauslabkogel,3402,46.7873114,10.8466382
Sennkogel,3398,46.804953,10.8558489
Talleitspitze,3406,46.8332381,10.886672
Großes Kahndl - Gran Cadola,3179,46.7642243,10.8310286
Schwarze Wand - Croda Nera,3354,46.7757869,10.8153672
Graue Wand - Croda Grigia,3202,46.7729322,10.7951456
Grawand - Croda delle Cornacchie,3251,46.7690657,10.7996383
Ulsenspitz,2737,46.7611931,11.0996088
Rötenspitz - Punta Rossa,2878,46.7522336,11.1039315
Karkopf,2416,46.7855829,11.1078683
Erenspitze - Cima dell'Onore,2760,46.7644227,11.0776637
Erenschneid / Erenspitze,2645,46.7685174,11.0725081
Feldernkopf,2071,47.4831655,11.3362025
Schwemser Spitze - Punta di Oberettes,3456,46.7743033,10.7332001
Lagaunspitze - Punta di Lagaun,3440,46.7391537,10.7393738
Roter Kopf - Cima Rossa,3246,46.7976702,10.6778772
Rabenkopf - Cima dei Corvi,3394,46.7835159,10.6728103
Unknown,3356,46.7934207,10.6850558
Nördliche Valvelspitze,3329,46.775027,10.6707667
Westlicher Mataunkopf,2890,46.8481467,10.5785601
Brunnenkarkopf,3246,46.9094748,10.8471169
Hinterer Eiskastenkopf,3299,46.9133533,10.7783934
Piengkopf,2790,46.8605691,10.5643697
Südliche Wösterspitze,2537,47.2075217,10.1907828
Mittlere Wösterspitze,2557,47.2108972,10.1917987
Nördliche Wösterspitze,2558,47.2127096,10.1912794
Wösterkopf,2310,47.2246422,10.1808559
Krabachspitze,2522,47.1956927,10.2077715
Rauher Kopf,2520,47.1958674,10.2015437
Rüfispitze,2632,47.1911234,10.1823923
Trittwangkopf,2482,47.1856677,10.1994059
Fanggekarspitze,2640,47.1796712,10.2232075
Trittkopf,2720,47.1552756,10.1934871
Pazüelfernerspitze,2712,47.154644,10.2002674
Nördlicher Trittkopf,2581,47.1617112,10.1889315
Lisunspitze,2667,47.1554828,10.2358454
Fallersteinkopf,2336,47.1635121,10.2663757
Gloggerspitze,2523,47.1725068,10.2903171
Schindlekopf,2471,47.1686843,10.3160342
Gfällkopf,2023,47.1871107,10.318959
Kaisersteinspitze,2346,47.1816426,10.3196944
Vordere Schmalzgrubenspitze,2605,47.1849159,10.2409391
Hintere Schmalzgrubenspitze,2643,47.1831049,10.2394828
Kuglaspitze,2684,47.1802061,10.230854
Fleischkopf,2472,47.2041074,10.2580549
Zwölferkopf,2310,47.235832,10.3268049
Fallenbacherspitze,2723,47.2005194,10.3904535
Muttlerkopf,2617,47.2194221,10.3731294
Tajaspitze,2538,47.2275746,10.3758099
Etlerkopf,2693,47.21208,10.3729566
Pleisspitzen,2567,47.2115864,10.3772283
Pleiskopf,2656,47.2139698,10.3726321
Dreischartlekopf,2440,47.2065975,10.4242056
Saxerspitze,2690,47.2109144,10.4392248
Gartenspitze,2331,47.2623311,10.4486166
Großstein,2632,47.2424796,10.4917283
Südliche Torspitze,2622,47.237641,10.4943318
Kögele,2426,47.2365207,10.4897131
Westliche Hengstspitze,2599,47.2365263,10.4970315
Rotspitze,2837,47.1891244,10.4224245
Rote Platte,2831,47.1936695,10.4246278
Oberlahmsspitze,2658,47.2138445,10.4901535
Kleinbergspitze,2756,47.2021035,10.4966848
Vorderer Seekopf,2685,47.1931796,10.4763004
Mittlerer Seekopf,2702,47.1912351,10.4786187
Hinterer Seekopf,2708,47.1888736,10.4791079
Seeschartenspitze,2705,47.1947192,10.4952177
Seeschartenkopf,2664,47.1918262,10.4934317
Seeköpfle,2562,47.1933366,10.4857728
Edelrautenspitze,2450,47.1981167,10.4880015
Mittelrücken,2537,47.1808951,10.4840943
Feuerköpfe,2827,47.1646719,10.4574548
Grießmuttekopf-Nordwestgipfel,2807,47.171674,10.4393502
Grießlkopf,2813,47.1850865,10.4340414
Eisenkopf,2844,47.1637291,10.4504049
Stierköpfl,2538,47.1758742,10.4018307
Stierkopf,2589,47.1784071,10.4148887
Blankahorn,2822,47.1748463,10.5128145
Wannenkopf,2821,47.1743411,10.5232895
Unter-Rauhekopf,2704,47.1693712,10.5329367
Medriolkopf,2664,47.2135895,10.5239983
Westlicher Schafhimmelkopf,2712,47.220572,10.5236455
Großbergspitze,2657,47.2020578,10.5172911
Großbergkopf,2612,47.2017534,10.5098664
Östliche Spießrutenspitze,2700,47.2007248,10.5250475
Westliche Spießrutenspitze,2703,47.2005864,10.5213031
Gebäudspitze,2703,47.2143813,10.5451363
Bittrichkopf,2698,47.2165905,10.5441382
Kreuzjochspitze,2672,47.2001228,10.5572755
Sonnenpleis,2453,47.1930943,10.567362
Silberspitze,2461,47.1842071,10.5725131
Südliche Zwickspitze,2301,47.2667321,10.4933267
Nördliche Zwickspitze,2302,47.2680304,10.4939856
Hirschleskopf,2052,47.2595588,10.5115801
Große Schafkarspitze,2532,47.2527509,10.4943743
Gramaiser Spitze,2420,47.2484585,10.4959579
Chrummhüreli,2663,46.6825335,9.8083201
Chrachenhorn,2878,46.6882861,9.814517
Mittaghorn,2735,46.7018937,9.8657348
Piz Ducan,3063,46.6895531,9.8515728
Tällihorn,2684,46.7400833,9.866484
Witihüreli,2635,46.7521241,9.8674317
Schwarzflua,2625,46.7240403,9.8309112
Älplihorn,3006,46.7106448,9.825498
Plattenflue,3013,46.6929667,9.8611918
Augstenhüreli,3027,46.6917214,9.903217
Bot digl Uors,2230,46.6452114,9.6703416
Börterhorn,2697,46.7437316,9.8855419
Bocktenhorn,3044,46.7070851,9.902702
Chavagl Grond,2443,46.6379935,9.7002335
Chantota,2542,46.6320706,9.6696005
Chüealphorn,3078,46.6853686,9.9053628
Chlein Ducan,3004,46.6816826,9.8407323
Cuolm da Latsch,2296,46.6502912,9.7549075
Gfroren Horn,2747,46.7217282,9.8714812
Hüreli,2574,46.7316146,9.895418
Gletscher Ducan,3020,46.6748546,9.8301382
Gipshorn,2814,46.6775341,9.7980376
Jatzhorn,2682,46.7657363,9.8604965
Muchetta,2623,46.6752037,9.7321169
Piz d'Uglix,2967,46.6118156,9.7016926
Piz digl Barba Peder,2746,46.6076115,9.7185154
Piz Cuolmet,2796,46.6243491,9.6699438
Piz Crealetsch,2950,46.6646506,9.8127086
Piz Radond,2666,46.6159368,9.7192879
Piz Prosonch,2684,46.6531899,9.7849484
Piz Platta Roggia,2955,46.6600383,9.8046405
Piz Murtelet,3019,46.6704404,9.8681981
Piz Ela,3339,46.6019447,9.7076149
Piz Spadlatscha,2781,46.6157658,9.7038384
Piz Rugnux,2736,46.6091564,9.7340508
Piz Ravigliel,2987,46.6699515,9.8222615
Sattelhorn,2980,46.7102605,9.9023648
Rossboden,2601,46.7581985,9.8670283
Wuosthorn,2815,46.7345495,9.877903
Tschimas Da Tschitta,2745,46.5925911,9.7276135
Grüntalspitze,2399,47.2459344,10.5195781
Landschaftseck,2610,47.2357208,10.5075737
Steinkarspitze,2650,47.2326917,10.5740912
Hinterer Gufelkopf,2592,47.2324058,10.5675368
Westliche Plattigspitze,2558,47.251077,10.5739225
Östliche Plattigspitze,2548,47.2513083,10.5768149
Rotkopf,2692,47.2553121,10.6412492
Habart,2294,47.2934705,10.6325799
Falschkogel,2388,47.2946477,10.6597023
Pfeilspitze,2469,47.3302332,10.5738897
Rotwand,2395,47.3268494,10.5630627
Mittlere Kreuzspitze,2496,47.3363504,10.5927602
Elmer Muttekopf,2350,47.3533214,10.5795426
Tauberspitze,2298,47.3561635,10.603825
Pleiskopf,2560,47.2524277,10.6520453
Ödkarlekopf,2565,47.24839,10.6552353
Hinterer Scharnitzkopf,2554,47.2753744,10.6592426
Maldonkopf,2632,47.2747267,10.6698489
Vorderer Scharnitzkopf,2599,47.2751732,10.6663857
Hahnleskopf,2332,47.2819253,10.6923707
Hintere Platteinspitze,2723,47.2730594,10.6782351
Mannkopf,2171,47.2474234,10.6741597
Hinteres Alpjoch,2425,47.2546757,10.6637307
Östliche Steinmandlwand,2507,47.3053753,10.6940196
Gabelspitze,2581,47.3026371,10.6826475
Heiterwand Ostgipfel,2471,47.3154076,10.7467979
Tarrentonspitze,2608,47.3122102,10.7225189
Alpeilspitzen,2521,47.3077201,10.7111169
Alpeilspitzen,2450,47.3065287,10.7056766
Alpeilspitzen,2552,47.3088035,10.714651
Unknown,2275,47.3088309,10.6861259
Unknown,2117,47.3171156,10.6721385
Sinnesjoch,2273,47.302763,10.7748273
Rauchberg,2480,47.3042437,10.7584406
Alpleskopf,2258,47.3166293,10.7733059
Karleskopf,2179,47.3331105,10.6410476
Seelakopf,2368,47.3517887,10.7020016
Schlierewand,2217,47.3634391,10.7087645
Kalter Stein,2145,47.352846,10.6856785
Englspitzle,2235,47.3477867,10.6887491
Schlierekopf,2290,47.3428667,10.6944595
Rudigerkopf,2249,47.3366075,10.6922216
Schwarzhanskarspitze,2227,47.4051645,10.613041
Neualpspitze,2143,47.384458,10.63412
Dürrekopfspitze,2158,47.3801648,10.6390424
Mitterkarspitze,2191,47.3895818,10.6209784
Pleisspitze,2109,47.3956502,10.6009815
Mittergrotzenspitze,2193,47.3992662,10.6149082
Schartenberg,2071,47.4113667,10.6220528
Achseljoch,2020,47.4264555,10.7435655
Lachenspitze,2126,47.4400967,10.5176141
Furggabüel,2174,46.8044896,9.495551
Aserlespitze,2337,47.3406512,10.7572097
Gamplesspitze,2325,47.3409478,10.7474163
Karlekopf,2270,47.3425562,10.764918
Sittelehner-Kopf,2343,47.348062,10.7805535
Tagweidkopf,2408,47.358399,10.7770464
Unheimlicher Kopf,2189,47.3615256,10.7656648
Mittleres Kreuzjoch,2321,47.3635125,10.779887
Galtbergspitze,2391,47.3709985,10.7729162
Roter Stein,2366,47.3819288,10.7732884
Steinmandlspitze,2347,47.3774374,10.7686902
Hintere Suwaldspitze,2159,47.3754933,10.7542991
Östliches Kreuzjoch,2231,47.3645402,10.7881567
Vordere Suwaldspitze,2155,47.377594,10.7515953
Unknown,2052,47.3886954,10.7453102
Hönig,2034,47.3936552,10.7417231
Largoz,2214,47.2416749,11.5925722
Nördliches Kreuzjoch,2332,47.3643529,10.7784798
Unknown,2362,47.3858788,10.8190791
Gartnerwand-Westgipfel,2353,47.3846634,10.8147354
Säuling,2039,47.5349837,10.7538283
Kuhljochspitze,2297,47.3149478,11.2713787
Freiungen (W),2332,47.3177281,11.2555717
Kirchl,2225,47.3157508,11.2743531
Fleischbanktürme,2206,47.324605,11.2862828
Maderkarlspitze,2174,47.3369422,11.2831588
Fleischbankspitze,2206,47.3297763,11.2867058
Samstagkarspitze,2196,47.3333123,11.2852316
Hintere Brandjochspitze,2596,47.3029148,11.3392131
Hippenspitze,2386,47.3101041,11.3384984
Westliche Sattelspitze,2339,47.3060962,11.3515065
Östliche Sattelspitze,2369,47.307759,11.3526312
Kumpfkarspitze,2375,47.318523,11.3652122
Mittlere Kaminspitze,2435,47.3123241,11.3724004
Westliche Kaminspitze,2445,47.3125772,11.3695018
Östliche Kaminspitze,2435,47.3122658,11.374278
Seegrubenspitze,2350,47.3121747,11.379275
Gleirschspitze,2317,47.3156384,11.398184
Mandlspitze,2366,47.3196644,11.407129
Nördliches Gleierschtaler Brandjoch,2372,47.3261482,11.4101556
Südliches Gleierschtaler Brandjoch,2374,47.3244947,11.4104629
Unknown,2160,47.3213971,11.434324
Wildangerspitze,2153,47.3262498,11.4591035
Katzenkopf,2531,47.3508345,11.3643334
Oberer Sagkopf,2154,47.3545091,11.3497592
Äußere Rigelkarspitze,2407,47.3576703,11.364354
Mittlere Jägerkarspitze,2608,47.3537142,11.3753754
Südliche Jägerkarspitze,2579,47.3522881,11.3761567
Nördliche Jägerkarspitze,2596,47.3550006,11.3756641
Innere Rigelkarspitze,2438,47.3566665,11.3708289
Hinterödkopf,2451,47.3563047,11.3829122
Jägerkarlspitze,2470,47.3509949,11.3915091
Unknown,2618,47.3510552,11.3988098
Kaskarspitze,2580,47.3478084,11.4182767
Sonntagkarspitze,2575,47.3463515,11.4274229
Hintere Bachofenspitze,2668,47.345592,11.4383442
Roßkopf,2646,47.3395408,11.4418918
Große Stempeljochspitze,2543,47.3346336,11.4383225
Hohe Fürleg,2570,47.3402821,11.5344861
Walderkampspitze,2565,47.3400867,11.5375851
Hundskopf,2243,47.3410973,11.5582366
Südliche Sonnenspitze,2668,47.3864063,11.4776327
Nördliche Sonnenspitze,2650,47.3906032,11.4819705
Fiechter Spitze,2299,47.3675743,11.6444311
Gauggturm,2485,47.4044834,11.3544872
Kleine Riedlkarspitze,2244,47.4149841,11.3554009
Unknown,2473,47.4100006,11.385813
Bockkarlspitze,2435,47.414844,11.3858684
Angerkopf,2234,47.4200272,11.3856596
Unterer Spitzhüttenkopf,2390,47.3924085,11.3796941
Oberer Spitzhüttenkopf,2502,47.3969507,11.3809697
Unknown,2605,47.4020043,11.3864167
Unknown,2590,47.4062358,11.4011811
Birkköpfe,2581,47.4049812,11.4225167
Birkköpfe,2599,47.3998286,11.420666
Birkköpfe,2574,47.3959586,11.4177775
Unknown,2897,46.5156201,11.822873
Großer Heißenkopf,2437,47.3925156,11.4446518
Sägezähne,2660,47.3978504,11.4466823
Westliche Hochjöchlspitze,2473,47.4100533,11.4436134
Östliche Hochjöchlspitze,2552,47.4058924,11.4469217
Rauhkarlspitze,2619,47.4020043,11.4560005
Moserkarspitze,2533,47.3973988,11.4696246
l'Antersass,2908,46.5194079,11.8238256
Kühkarlspitze,2465,47.3934801,11.4757894
Brantlspitze,2626,47.3634633,11.5081466
Bockkarspitze,2589,47.3911206,11.4866607
Westlicher Ladizturm,2524,47.3908012,11.4924541
Östlicher Ladizturm,2542,47.3902953,11.4956299
Roßlochspitze,2538,47.3735042,11.5191794
Unknown,2615,47.3844332,11.5190612
Hallerangerspitze,2398,47.364656,11.485661
Unknown,2151,47.3649621,11.5530071
Spitzkarlspitze,2376,47.3687495,11.5574203
Plattenspitze,2492,47.3775129,11.5368682
Kaiserkopf,2506,47.3695219,11.5742705
Huderbankspitze,2318,47.3624711,11.5785562
Mitterkarlspitze,2418,47.3775412,11.5889838
Barthspitze,2461,47.3813212,11.5787864
Schafkarspitze,2505,47.3824555,11.5839714
Mitterspitze,2496,47.38213,11.5874308
Lamsenhüttenturm,2216,47.3789815,11.5966934
Niedernissl,2067,47.3635659,11.625337
Schneekopf,2313,47.3666937,11.6357737
Mittagsspitze,2333,47.3682628,11.6423153
Dent de Mezdi,2881,46.5288719,11.8297753
Col Aut,2882,46.5107642,11.81835
Col Turont,2927,46.5133502,11.8196503
Piz Léch Dlacè - Eisseespitze,3009,46.5142596,11.8327407
Le Ponte - Le Punte,2791,46.5130232,11.839162
Murfreitspitze,2634,46.5395709,11.8057827
Westliches Kirchl,2241,47.4307842,11.3035822
Kreuzwand,2130,47.4369645,11.3011712
Viererspitze,2054,47.437945,11.293681
Mittleres Kirchl,2211,47.4302026,11.3075093
Östliches Kirchl,2225,47.4303184,11.3097695
Westliche Larchetfleckspitze,2303,47.4304267,11.3113814
Östliche Larchetfleckspitze,2362,47.4307958,11.3134407
Schönbergspitze,2294,47.4390109,11.3313229
Südliche Großkarspitze,2289,47.4431519,11.3307007
Nördliche Großkarspitze,2420,47.4473049,11.3345092
Raffelspitze,2323,47.4448834,11.3647136
Bäralplkopf,2323,47.4468728,11.390339
Östliche Steinkarspitze,2015,47.4546499,11.4131303
Grabenkarturm,2448,47.4446882,11.426825
Unknown,2020,47.4498541,11.4323231
Unknown,2374,47.437729,11.4359081
Lackenkarkopf,2416,47.4375471,11.443805
Talelespitze,2104,47.4395331,11.4686729
Kleinvenediger,3470,47.1171539,12.3574996
Unknown,2317,47.434036,11.5112015
Kleiner Falk,2190,47.4447142,11.5076213
Turmfalk,2201,47.439887,11.5248827
Totenfalk,2131,47.4425358,11.5253948
Gumpenspitze,2176,47.4067563,11.5394443
Gamsjoch,2452,47.4183293,11.5488386
Ruederkarspitze,2240,47.4224558,11.5560303
Roßkopfspitze,2015,47.4345766,11.556711
Unknown,2195,47.4249069,11.6132863
Falzthurnjoch,2150,47.4352881,11.6309294
Schafjöchl,2157,47.3812544,11.614403
Rauher Knöll,2277,47.3869902,11.6229678
Lunstkopf,2142,47.3958332,11.6346413
Brentenkopf,2024,47.3881944,11.6471815
Dristenkopf,2005,47.4205105,11.6637725
Larchkarlkopf,2162,47.4048661,11.6444211
Gamskarspitze,2098,47.4007918,11.6670918
Kaserjoch,2198,47.4039493,11.6571848
Ochsenkopf,2148,47.398751,11.6801988
Hundskopf,2050,47.26839,10.212642
Peischelspitze,2512,47.2714318,10.2776862
Hochgundspitze,2460,47.2846536,10.262767
Steinschartenkopf,2615,47.284615,10.2802909
Wilder Kasten,2542,47.2698937,10.2876829
Linkerskopf,2459,47.29093,10.26369
Unknown,2512,47.267392,10.274682
Ellbogner Spitze,2552,47.2652285,10.2723158
Unknown,2468,47.269681,10.275247
Muttekopf,2431,47.27532,10.308822
Unknown,2362,47.276616,10.313397
Rote Tenne,2144,47.2814164,10.3221619
Wilder Mann,2577,47.287708,10.279934
Kleiner Rappenkopf,2276,47.28342,10.24396
Unknown,2073,47.2981718,10.2665222
Westlicher Berg der guten Hoffnung,2381,47.2979555,10.2854154
Trettachspitze,2595,47.30362,10.29545
Unknown,2279,47.3106812,10.2939821
Unknown,2328,47.3217691,10.3351478
Unknown,2385,47.32032,10.33937
Hornbachspitze,2533,47.3155274,10.3567417
Hielesköpfle,2248,47.3399245,10.3525988
Unknown,2017,47.37005,10.34466
Gieseler Wand,2020,47.3729,10.34246
Kleine Höfats,2073,47.36807,10.35452
Unknown,2049,47.33231,10.2074
Zwölfer,2224,47.306755,10.170654
Wildengundkopf,2197,47.2881364,10.1835715
Elfer,2387,47.302297,10.177474
Angererkopf,2263,47.2939,10.18548
Haldenwanger Kopf,2002,47.27507,10.17348
Zwölferspitze,2415,47.3426667,10.4726391
Elferspitze,2512,47.343971,10.4823662
Klimmspitze,2464,47.3518372,10.5060437
Gliegerkarspitze,2575,47.3344403,10.4540676
Steinspitze,2349,47.3291088,10.4698244
Pfeiler,2206,47.3140365,10.4569783
Hintere Jungfrauspitze,2394,47.327229,10.45674
Südlicher Söllerkopf,2390,47.314242,10.42883
Unknown,2482,47.327082,10.433161
Kreuzkarspitze,2587,47.3238852,10.4253575
Nördlicher Söllerkopf,2402,47.3182168,10.4274669
Bretterkarspitze,2267,47.334422,10.4323044
Schreierkopf,2198,47.331625,10.413178
Schöneggerkopf,2322,47.319513,10.4079
Westliche Plattenspitze,2493,47.3182971,10.3919887
Südliche Ilfenspitze,2545,47.3172543,10.3891402
Nördliche Ilfenspitze,2552,47.3181793,10.3873291
Südliche Wolfebnerspitze,2427,47.313734,10.399478
Nördliche Wolfebnerspitze,2432,47.3138026,10.3990689
Hermannskarturm,2442,47.308643,10.377113
Hermannskarspitze,2471,47.3100382,10.3766467
Unknown,2462,47.316842,10.378671
Westliche Faulewandspitze,2480,47.317003,10.364333
Östliche Faulewandspitze,2473,47.316664,10.367354
Rothornspitze,2393,47.2901222,10.3594985
Mutte,2187,47.291341,10.374439
Unknown,2141,47.383598,10.449693
Unknown,2087,47.386685,10.453879
Unknown,2218,47.38343,10.479438
Jochumkopf,2339,47.3848749,10.4749636
Kluppenkarkopf,2355,47.387101,10.468456
Großer Rosszahn,2356,47.390013,10.46796
Kleiner Rosszahn,2312,47.393773,10.475098
Horiger Rücken,2254,47.3809881,10.4985086
Unknown,2233,47.380081,10.495906
Östliche Rosskarspitze,2291,47.3800681,10.4903584
Westliche Rosskarspitze,2292,47.3807656,10.4866935
Stallkarspitze,2350,47.3854669,10.5023617
Unknown,2127,47.382315,10.511158
Grubachspitze,2100,47.3828646,10.5220947
Haldenspitze,2220,47.388641,10.5102116
Schnatterbachkopf,2065,47.392899,10.503918
Saldeiner Spitze,2036,47.3989122,10.5318987
Kanzberg,2009,47.353014,10.408591
Schafgrübler,2922,47.1012399,11.1602933
Rossgundkopf,2139,47.31946,10.23356
Alpgundkopf,2177,47.32221,10.23758
Grießgundkopf,2164,47.3236352,10.239598
Rossgundturm,2066,47.31674,10.23614
Heiterberg,2188,47.281729,10.0901371
Älpelesspitze,2161,47.2839845,10.0909815
Weißer Schrofen,2145,47.279709,10.095965
Höferspitze,2131,47.274088,10.10141
Üntschenspitze,2135,47.304187,10.0606904
Unknown,2360,47.285071,10.139003
Unknown,2371,47.286224,10.135142
Kleiner Widderstein,2236,47.290811,10.136505
Bärenkopf,2083,47.300056,10.135763
Leistchamm,2101,47.1460532,9.2134123
Toblacher Pfannhorn - Corno di Fana,2663,46.782827,12.2845216
Col dala Piëres,2747,46.5843985,11.7828613
Nädliger,2321,47.237863,9.3635601
Fliskopf,2386,47.2410344,9.3676371
Ruchbüel,2106,47.2339545,9.3819704
Höch Nideri,2246,47.260838,9.3535511
Fälenschafberg,2104,47.2470948,9.3916783
Rot Turm,2002,47.251183,9.4016045
Freiheittürm,2105,47.2513113,9.3962504
Nadlenspitz,2030,47.24803,9.3956391
Marwees,2056,47.261295,9.4039231
Öhrli,2194,47.265446,9.3605231
Hängeten,2138,47.264916,9.3680381
Altenalp Türm,2033,47.270768,9.3784941
Kreuzberg VII,2064,47.237248,9.4118355
Mutschen,2122,47.2360668,9.4063629
Widderalpstöck,2131,47.2539151,9.4034758
Schwarzhorn,2460,47.0326561,9.8702581
Piz Titschal,2550,46.7082769,9.0301717
Piz Danis,2497,46.7376234,9.5072029
Gaiseck,2212,47.4686104,10.4699514
Lappi,2472,46.6850295,9.0713569
Dutjer Horn,2391,46.7517481,9.278247
Gammerspitze,2537,47.0551978,11.575901
Piz Cotschen,2768,46.6495037,10.3964879
Hasenflüeli,2412,46.94712,9.8452616
Seekarlspitze,2261,47.4572407,11.7779793
Spieljoch,2236,47.4558023,11.7729064
Hintere Steinkarspitze,2215,47.3815701,10.6619462
Vorder Bliistock,2405,46.9340961,9.1208101
Chli Kärpf,2700,46.9194871,9.093483
Gross Kärpf,2794,46.9167538,9.0933795
Viggarspitze,2306,47.2135201,11.4988592
Gampes Spitze,2624,47.0594407,11.5846067
Hohe Warte,2687,47.0624676,11.5893075
Sunntiger,2400,47.1054482,11.5373381
Schafseitenspitze,2602,47.1028586,11.5540354
Rauher Kopf,2150,47.0742047,11.5836662
Scheibenspitze,2489,47.1053904,11.5716242
Kahlwandspitze,2546,47.0559924,11.6134728
Steinernes Lamm,2528,47.0568444,11.6280704
Hirschstein,2281,47.150542,11.5314498
Piz Davo Lais,3027,46.8788015,10.2679497
Unknown,2898,46.8878136,10.2775594
Piz Mottana,2928,46.8903509,10.2887185
Palinkopf,2864,46.9501998,10.3093599
Nafingköpfl,2454,47.2191593,11.726538
Hoher Kopf,2373,47.2281042,11.7277867
Hobarjoch,2512,47.2050502,11.7035077
Halslspitze,2574,47.2045896,11.7303117
Dreispitzkopf,2604,47.2132994,11.7500604
Sonntagsköpfl,2244,47.2719649,11.7557406
Heimjoch (Mareitkopf),2004,47.346842,11.9824644
Pizzet,2910,46.6202675,9.9273331
Roßlaufspitze,2248,47.2393447,11.7241612
Alplköpfl,2141,47.2423579,11.7209541
Wildofen,2553,47.2250536,11.6738244
Kugelhorn,2126,47.448525,10.4702482
Rauhhorn,2241,47.4585184,10.4681893
Kälbelespitze,2135,47.4316,10.47539
Rote Spitze,2130,47.4431801,10.4996913
Hohes Egg,2820,47.0362833,11.0909912
Großer Kornigl - Cornicolo,2419,46.5177422,11.0267396
Kleingitsch - Piccolo Monte Cuzzo,2262,46.8542605,11.6738027
Hohe Munde Westgipfel,2662,47.3470483,11.0717258
Wiedemerkopf,2163,47.39012,10.41699
Weißlehnkopf,2002,47.3905254,11.2017641
Arnplattenspitze (Hintere Arnspitze),2170,47.3927699,11.2092105
Mittlere Arnspitze,2091,47.3941425,11.2156422
Seefelder Spitze,2221,47.3327905,11.2375528
Längentaler Weißer Kogel,3217,47.0700386,11.0860322
Crap Grisch-Planggenhorn,2861,46.654831,9.2327047
Tällihorn,2856,46.6456904,9.2393063
Pizzas d'Anarosa-Grauhörner,3002,46.5994757,9.3134342
Wisshorn,2988,46.5841692,9.2931782
Piz Beverin,2997,46.6525671,9.3579644
Bärenhorn,2929,46.5755124,9.232007
Chüenihorn,2412,46.9884859,9.8144206
Girenspitz,2369,46.9943191,9.8201182
Schafberg,2456,47.0029623,9.8156997
Öfakopf,2374,47.0377239,9.7958527
Drusenfluh,2827,47.0290453,9.8016617
Rotbühelspitze,2853,46.9160246,9.9590704
Kessispitze,2833,46.9025714,9.9913798
Hinterberg,2682,46.915917,9.9779628
Mittelberg,2657,46.9191999,9.9859225
Vorderberg,2553,46.9282512,9.9839943
Scheienfluh,2627,47.006442,9.8732878
Wiss Platte,2630,47.0096906,9.8709987
Mittagsspitze,2665,46.9624857,9.9506589
Schmalzberg,2345,46.9681839,9.9338602
Heimspitze,2685,46.961461,9.9661734
Valisera,2716,46.9609742,9.9558138
Kuchenberg,2523,46.9344975,9.9828758
Madrisella,2466,46.9595755,9.9862236
Unknown,2406,46.9559531,9.9869479
Burg,2247,46.9733272,9.9959066
Scheimersch,2420,47.0418731,10.005173
Schafboden,2400,46.9509967,10.0242073
Roßberg,2381,47.0361595,10.019975
Geisterspitz,2480,47.0405512,10.0203157
Luterseeberg,2480,47.0339794,10.0598329
Valschavieler Maderer,2769,47.0250086,10.0697805
Strätscherhorn,2558,46.5990029,9.2497776
Alperschällihorn,3039,46.5882095,9.307885
Bodenhorn,2698,46.5949335,9.2997311
Gelbhorn - Piz Mellen,3035,46.621389,9.306111
Plangghoora,2584,46.691924,9.2776811
Urkundkolm,3134,46.873797,10.8759525
Kleiner Gilfert,2388,47.2359215,11.7530837
Unknown,2737,47.1539646,10.9845124
Hohe Wasserfalle,3003,47.1652548,10.971795
Kraspesspitz,2954,47.1807406,11.0429989
Kuhscheibe,3188,47.0127289,11.0550043
Windacher Daunkogel (Vorgipfel),3301,46.9882236,11.0776744
Windacher Daunkogel,3348,46.9873994,11.0811454
Hinterer Daunkopf,3225,47.0043447,11.0964556
Kleiner Gaislehnkogel,3145,47.064146,11.0687459
Bachfallenkopf,3176,47.0739744,11.0874935
Winnebacher Weißkogel,3182,47.1107186,11.0624092
Naglerspitz - Naglerspitz,3252,46.5109044,10.4578426
Wurmaulspitze - Cima Valmala,3022,46.913973,11.6377879
Piz Rims,3050,46.7333483,10.3991312
Föllakopf - Cima Fölla,2878,46.7222366,10.427131
Unknown,2532,46.6731765,12.0319284
Gahwinden,2648,47.000402,10.8873197
Kapall,2333,47.1484294,10.2487419
Großer Tanzkogel,2097,47.3350342,12.2562251
Torkopf,2116,47.335636,11.9946051
Tinzenhorn,3172,46.6116133,9.6708008
Aussergsell - Monte Casella di Fuori,2007,46.6890323,12.3270926
Hennekopf,2704,46.9095618,10.1395315
Rohnspitze,2495,47.1534895,10.1001968
Wasenspitze,2665,47.1538193,10.1275143
Kleiner Grätligrat,2642,47.1683373,10.1276334
Kleine Wildgrubenspitze,2625,47.1724201,10.1209256
Große Grubenspitze,2659,47.1542442,10.1359465
Großer Grätligrat,2700,47.162592,10.1328758
Flexenspitze,2627,47.1593738,10.1373691
Hintere Hasenfluh,2544,47.1661559,10.1393796
Stierlochkopf (Gümplekopf),2354,47.1805701,10.1105429
Mittagspitze,2529,47.180156,10.1177265
Madlochspitze,2545,47.179208,10.122609
Seekopf,2206,47.1753016,10.1424921
Regalmwand,2227,47.5563055,12.3372818
Hintere Goinger Halt,2192,47.5687712,12.3239622
Ellmauer Halt,2342,47.5616377,12.3025296
Vordere Karlspitze,2263,47.563983,12.315917
Col de Lasta Gran - Colle di Lasta Grande,2311,46.6514072,12.0475912
Höllböden - Monte Chiaro,2710,46.8651959,12.2918527
Hochgrabe,2951,46.8489848,12.4215847
Kesselkarkopf,2703,47.1767734,12.3286445
Vorderer Maurerkeeskopf,3325,47.0785108,12.2691415
Unknown,2019,47.3562196,11.4221482
Rauher Kopf,2308,47.2502068,11.1346604
Peider Spitze,2808,47.2198206,11.1214391
Mitterkogel,2581,47.2234865,11.1420268
Malgrubenspitze,2571,47.1718424,11.296307
Torhelm,2494,47.2714499,12.0041001
Ochsenkopf,2469,47.2751106,12.0786186
Hochkünzelspitze,2397,47.271718,10.030463
Schönangerspitze,2264,47.4421375,11.011646
Roteck - Monte Rosso,3337,46.7235816,10.9842619
Altes Karl - Monte Campo Quaira,2031,46.8224832,11.6029124
Griften (Zupalkogel),2723,46.9501272,12.4430276
Kuhmesser,2246,47.3099345,11.7714187
Hollbrucker Kreuz,2581,46.701121,12.4306145
Füllhorn - Corno Copia,2445,46.7108524,12.4003553
Hollbrucker Egg,2573,46.7026034,12.4302807
Zenzerspitz,2393,46.7073041,12.4366283
Ampferstein,2556,47.1744437,11.3132609
Marchreisenspitze,2620,47.172863,11.3085376
Langschneid,2688,46.8934708,12.325207
Hofspitze,2819,46.9499851,12.3674792
Großes Degenhorn,2946,46.8688664,12.3930981
Wagenstein,2849,46.8761479,12.3994981
Rotegg,2796,46.8803721,12.4126302
Kreuzberg,2743,46.9459195,12.4914036
Karnase,2713,46.8824992,12.4210663
Hoher Eichham,3371,47.0537716,12.4066407
Hinterer Seekopf,3234,47.0706975,12.4088336
Hoher Zaun,3457,47.1000922,12.377606
Schwarze Wand,3506,47.1038414,12.3701663
Säulkopf,3209,47.048447,12.420127
Kratzenberg,3022,47.1526112,12.3996561
Hohe Fürleg,3243,47.1416474,12.3626553
Mot Tavrü,2420,46.708175,10.3066893
Großer Moosstock - Picco Palù,3059,46.9508105,12.0225521
Alvier,2343,47.1098082,9.414746
Rauher Kopf,2052,46.9522625,10.4838718
Aleitenspitze,2449,47.3111525,12.1170367
Rote Wand - Croda Rossa,2818,46.8646289,12.1795325
Hinteres Schöneck - Dossobello di Dentro,3128,46.5504076,10.6048
Wetterkreuz,2230,46.9022281,12.3332126
Tettensjoch,2276,47.1411682,11.7451831
Schneck,2268,47.3859171,10.382386
Himmeleck,2152,47.3824903,10.3839399
Schneck-Vorgipfel,2258,47.38483,10.38171
Kreuzjoch - Giogo della Croce,2084,46.6517279,11.2926261
Seebodenspitz - Cima Pian del Lago,2860,46.7581348,10.4819338
Steinkarspitze,2067,47.43852,10.5045699
Jaufenspitz - Cima Giovo,2481,46.8342731,11.3344087
Hofmannspitze - Cima Piccola,3113,46.9427241,11.1746937
Kleine Kolbenspitze - La Piccola Clava,2818,46.7762257,11.1535085
Mutspitz,2265,46.7796096,11.1786058
Matatzspitz,2178,46.7861982,11.1920388
Kreuzspitze,3084,47.0635223,11.1824513
Hochzeiger,2560,47.1455818,10.7952574
Sechszeiger,2392,47.1659496,10.7837477
Rappenkopf,2320,47.0422792,10.8445131
Piz Motnair,2789,46.9366292,10.3862637
Bürkelkopf,3033,46.9894685,10.3476241
Kleine Aifnerspitze,2558,47.107405,10.7208516
Hohe Aifnerspitze,2779,47.1044136,10.7311296
Plangerosskopf,3058,46.9989047,10.8010337
Rosskopf,2305,47.0522465,10.8323578
Sulzspitze,2084,47.4622418,10.5365145
Tschamatschkopf,2145,46.9989214,10.2924192
Seebichel,2111,47.2879221,10.2524866
Col Quaternà,2503,46.667348,12.4723734
Laufbacher Eck,2178,47.3935621,10.380816
Abretter,2980,47.1503401,12.4345322
Gampenkofel,2281,46.7634308,12.3329302
Gantraste - Pausa Ganda,2130,46.7055556,12.2668138
Haunoldköpfl Ostgipfel - Piccola Rocca dei Baranci Cima Est,2158,46.701495,12.2913074
Lungkofel - Monte Lungo,2282,46.6982015,12.1785648
Rosszogel,2170,46.7793597,12.2364941
Grüblspitze,2395,47.157419,11.6931649
Zehnerkopf - Cima Dieci,2675,46.7888427,10.49183
Gamper Spitz,2662,46.7897038,10.491427
Golfen - Monte Calvo,2469,46.785401,12.2556455
Hönigspitz - Punta del Re,2698,46.7309862,11.2734119
Zendleser Kofel - Col di Poma,2422,46.6394148,11.8014727
Schwarzhorn,3032,46.6179286,9.302472
Piz Signina,2848,46.7241558,9.2841202
Piz Fess (Bös Fess),2880,46.727633,9.2888657
Chli Fess,2873,46.7278925,9.2896855
Äußerer Grieskogel,3104,46.902144,11.0057275
Schollenhorn,2732,46.5645641,9.2736593
Steilerhorn,2980,46.584418,9.3149654
Teurihorn,2973,46.5766897,9.3188277
Cufercalhorn,2800,46.5949909,9.3333117
Zervreilahorn,2898,46.550654,9.061357
Tällihorn,2820,46.5666165,9.2284993
Diedamskopf,2090,47.346454,10.02562
Riepenkopf,2900,47.0454397,11.668531
Col dal Lé,2175,46.7150111,11.840031
Tristkogel,2096,47.3681447,12.4770381
Muot da l'Hom,2330,46.7903793,10.1980126
Eisenreich - Montagna del Ferro,2665,46.6873014,12.4689554
Mairspitze,2797,47.0021107,11.2068751
Marchsäule,2598,47.1362769,11.2400406
Pezid,2770,47.0203218,10.5132367
Riefenkopf,2654,47.0185716,10.5275701
Kleine Halt,2122,47.56754,12.2974082
Gamshalt,2289,47.5645399,12.3001049
Foostöckli,2536,46.9545635,9.2367582
Pleisenspitze,2569,47.4086751,11.3419509
Crëp da les Dodesc - Zwölferkofel - Punta delle Dodici,2384,46.6135193,11.8413265
Schilt,2299,47.0443365,9.1122728
Tristli,2286,47.0451459,9.1101047
Kopfkraxen,2180,47.5622152,12.277786
Auf Sömen,2798,47.1475445,11.1699125
Signalgipfel,3392,46.9681212,11.1929738
Sattele,2461,46.7003387,11.4564744
Lavinores - Sas dla Para,2462,46.6248512,12.0746803
Karlespitze,2152,47.3528832,10.390418
Murtaröl,2579,46.6642144,10.0968893
Tapenkopf,2247,47.3326395,11.9358027
Standkopf,2241,47.3351567,11.9287938
Kleiner Galtenberg,2318,47.3312129,11.9717194
Gamskopf,2205,47.3322471,11.9425724
Gorfion,2308,47.0781382,9.6186837
Garselli-Turm 2,2040,47.169858,9.5700985
Ochsenkopf,2286,47.114693,9.6246738
Krummer Turm,2477,47.3199166,10.3432506
Rotwand,2262,47.3104567,10.4296148
Tofana di Dentro,3238,46.5572025,12.0643668
Riepenspitze,2774,46.8477231,12.2967059
Rotes Kinkele,2763,46.8421515,12.3706421
Rote Spitze,2956,46.8763405,12.34435
Glarner Vorab,3018,46.8798464,9.1530031
Laaxer Stöckli / Piz Grisch,2898,46.8830939,9.2041344
Vordere Steinkarspitze,2181,47.3865438,10.6632985
Egger Jöchl - Giogo di Dosso,2057,46.6872682,11.2394597
Pihapper,2513,47.2340895,12.4612746
Torre Grande,2361,46.5090754,12.0518683
Gerlosstein,2166,47.1942165,11.9238569
Piz Dolf / Tinserhorn,3028,46.9033284,9.2667017
Störes,2185,46.5305535,11.9231454
Elferspitze - Cima Undici,2926,46.7765768,10.4876034
Ciampani,2668,46.5963953,11.8478209
Sextner Stein - Sasso di Sesto,2539,46.6389935,12.3082242
Schillerkopf,2006,47.1427502,9.7212033
Wildspitze (Nordgipfel),3757,46.8866827,10.8676639
Seespitze,3021,46.9482637,12.273625
Gundkopf,2063,47.4193665,10.333058
Unknown,2023,47.41602,10.3513
Kleiner Seekopf,2096,47.40143,10.35639
Großer Seekopf,2085,47.40582,10.35473
Lachenkopf,2111,47.39483,10.37171
Balken,2172,47.38883,10.43009
Südliche Balkenspitze,2324,47.38555,10.4313394
Weittalkopf,2289,47.38445,10.42495
Obere Gottesackerwände,2033,47.37617,10.11713
Großer Valkastiel,2449,47.1008807,9.8056853
Steintälikopf,2432,47.0963263,9.8017313
Pfannenhölzer,2029,47.44727,10.39847
Älpelekopf,2024,47.439,10.4549
Schänzlekopf,2070,47.4181469,10.4534522
Sattelkopf,2097,47.41355,10.43845
Kirchturm,2013,47.4360105,10.4739205
Salober,2088,47.39785,10.38808
Bergächtle,2007,47.40753,10.39445
Laufbichelkirche Südgipfel,2029,47.43185,10.38557
Heubatspitze,2008,47.4589308,10.3810226
Leilachspitze,2274,47.438712,10.5463089
Östlicher Krottenkopf,2180,47.4352177,10.5353926
Krottenköpfe Vorgipfel,2087,47.433971,10.529223
Gösleswand,2912,46.9794623,12.295401
Schäfer,2081,47.499553,10.621844
Kellenschrofen,2091,47.498109,10.6371681
Babylonischer Turm,2076,47.498122,10.636008
Karretschrofen,2034,47.5187338,10.630915
Unknown,2150,47.4322302,10.3677778
Großer Wilder Nordgipfel,2370,47.37172,10.38791
Hinterer Wilder,2359,47.36719,10.38915
Muttakopf,2525,46.9697301,10.4466664
Morgenkopf - Monte Mattina,2493,46.6526304,12.2907536
Gantkofel Südostgipfel - Cima Ganda Sud-Est,2697,46.6921528,12.2667834
Schwalbenkofel Nordgipfel - Croda dei Rondoi Cima Nord,2769,46.6549144,12.2686197
Südlicher Bullkopf - Cima Bulla Sud,2848,46.663321,12.2607957
Nördlicher Bullkopf - Cima Bulla Nord,2817,46.666231,12.2599186
Hochebenkofel - Cima Piatta Alta,2905,46.6802201,12.257035
Schwarzkopf,2805,46.7418169,11.1017469
Sextener Rotwand Gipfelkreuz,2936,46.6453028,12.383275
Schottmeiler,2306,47.231303,12.35667
Breitkopf,2421,47.2283409,12.3596891
Zwölferkogel,2281,47.2358751,12.3531933
Rothorn,2239,47.2522063,10.0417547
Rossköpfe,2006,47.255445,10.037994
Karspitz - Punta Corno,2620,46.8859653,11.6632202
Seefeldspitz - Cima di Campolago,2719,46.8887591,11.6499411
Rotwand - Croda Rossa,2926,46.9030568,11.6420426
Grabspitz - Cima Grava,3059,46.9389756,11.6145219
Ribigenspitz,2939,46.8980507,11.6413895
Rosskopf,2839,46.9197612,11.6327
Nock - Monte Campanella,2531,46.8780419,11.6657523
Pfannespitz,2709,46.9211767,11.6266666
Schöneberg,2282,47.271224,10.012481
Disnerhöhe,2105,47.2372123,9.9998164
Giglturm,2112,47.265613,10.033208
Ruchenwannekopf,2179,47.274173,10.004547
Kunkelspitze,2016,47.261895,9.992061
Glattjöchlspitze,2106,47.2622951,10.0219799
Tullen,2655,46.6535323,11.7751165
Neblnock - Dosso Malo,2615,46.8953286,11.7532147
Dengelstein - Monte Dengolo,2698,46.9111547,11.7376155
Grinth - Cima Zappa,2620,46.898344,11.7484844
Eisbruggspitz - Cima Ponte di Ghiaccio,2787,46.9331204,11.7421102
Schwarze Riffl - Scoglio Nero,2744,46.9181104,11.7383904
Hörndle - Cima Gelata,2603,46.9047933,11.7420176
Ebenkofel - Dosso Piano,2463,46.668272,12.2411658
Großer Rautkofel - Monte Rudo Grande,2818,46.6477078,12.2688534
Unterebenkofel - Cima Piatta Bassa,2581,46.6681568,12.2732589
Mitterebenkofel - Cima Piatta di Mezzo,2858,46.6763876,12.2645924
Nasswand - Croda Bagnata,2254,46.6702742,12.2329972
Südlicher Gsellknoten - Cima di Sesto Sud,2855,46.6752996,12.3264701
Sasso di Landro - Zinnenkopf,2731,46.6184005,12.2926374
Große Pyramide am Helltaler Schlechten - Grande Piramide di Valchiara,2711,46.6653007,12.1963479
Sambock - Monte Sommo,2396,46.8547575,11.8959924
Schwalbenkofel - Monte delle Rondini,2481,46.6842404,12.130111
Gametzalpenkopf Nordgipfel - Monte Alpe del Camoscio Cima Nord,2590,46.6891388,12.1093336
Kleiner Rosskopf - Piccolo Sasso Rosso di Braies,2450,46.6829903,12.1156496
Großer Rosskopf - Sasso Rosso di Braies,2559,46.6867513,12.1183376
Kleiner Jaufen - Giovo Piccolo,2366,46.6662253,12.1206322
Röteck - Cima Rossa,2930,46.949872,11.6882213
Felbe,2849,46.946029,11.6300002
Engberg - Monte Stretto,2816,46.9507274,11.6776092
Westlicher Hochwart - Monte Guardia Alta Ovest,3045,46.9503378,11.7139692
Rotes Beil - Punta Rossa,2949,46.9527868,11.6607253
Pockshorn,3021,46.9534527,11.723994
Östlicher Hochwart - Monte Guardia Alta Est,3068,46.9508333,11.7197676
Hohes Aderl,3506,47.1019643,12.3500609
Piz da Peres,2507,46.7118045,11.980017
Thaneller,2341,47.4265128,10.7242298
Westliche Törlspitze,2427,47.4126395,11.1301239
Piz Lad,2882,46.5710467,10.4096457
Piz Val Gronda,2880,46.56245,10.4526638
Piz Turettas,2958,46.5867989,10.3350799
Piz Quattervals,3165,46.6272562,10.0948376
Piz Dora,2951,46.6050447,10.306192
Cucler da Jon dad Onsch,2827,46.5644491,10.3247662
Piz Minschuns,2934,46.5809038,10.4834328
Mon'Ata,2730,46.5856826,10.2681072
Piz Calderas,2794,46.581639,10.4692173
Cima del Serraglio,2685,46.592333,10.2420544
Piz dal Lai,2826,46.5548554,10.3851044
Piz Costainas - Furkelspitz,3004,46.5622664,10.4749463
Piz Pala Gronda,3002,46.578372,10.2936677
Munt Chavagl,2542,46.6441336,10.2340819
Munt Buffalora,2629,46.6270687,10.2500611
Piz Praveder,2764,46.5618342,10.3717414
Wildengundkopf,2238,47.31284,10.29192
Piz Forun,3052,46.6553074,9.8649438
Padauner Kogel,2066,47.0428627,11.5072631
Pupo di San Lorenzo,2377,46.5127582,12.3835476
Monte Ciarìdo,2504,46.5138557,12.3861869
Kompfoßspitz,2561,46.8681732,11.7789458
Donnerschlag,2585,46.8733576,11.7758401
Steinspitz - Punta del Sasso,2509,46.8657543,11.7787156
Piz Glims,2868,46.7871499,10.0680884
Südlicher Schwarzer Kopf,2947,47.1671835,10.4695986
Schwabenkopf,2701,47.1992452,10.4948875
Oberer Bocksgartenkopf,2888,47.166037,10.4781406
Stertekopf,2765,47.1615721,10.4713698
Pleisshorn - Corno di Plaies,3160,46.5142888,10.5235208
Muttner Höhi,2000,46.679874,9.4804312
Östliche Marienbergspitze,2561,47.3504863,10.9159595
Wamperter Schrofen,2520,47.3545588,10.9142474
Handschuhspitze,2319,47.3402845,10.8825436
Riedspitze - Cima Novale,2490,46.9289451,11.4977327
Daxspitz - Punta del Tasso,2645,46.9541811,11.5017951
Amthorspitze - Cima Gallina,2748,46.9444944,11.5022725
Sonnspitzl,2556,47.4196316,10.9710255
Kaiserkopf,2389,47.4230856,10.9760837
Wetterwandeck,2698,47.3981048,10.9771855
Kappler Kopf,2404,47.0606388,10.3255244
Grantspitz,2653,46.8750198,11.5925437
Dreiländerspitz,2666,46.8869752,11.5807758
Nornspitz - Monte Domenar,2718,46.880891,11.5924184
Terner Nock,2596,46.8768891,11.807008
Graunock - Monte Grigio,2872,46.8863011,11.7889081
Kempspitz - Monte Pausa di Gruppo,2704,46.87838,11.7927436
Warenkarseitenspitze,3347,46.9796917,11.075894
Hoher Nebelkogel,3211,46.9789036,11.0640376
Dannelspitz - Punta di Dan;Höhenwindstation Pfunders Dannelspitz - Stazione meteo di alta quota Fundres Punta di Dan,2808,46.9435164,11.6871374
Fassnacht - Monte Botte,2537,46.9276943,11.6706029
Weißwand - Croda Bianca,2458,46.9305837,11.6876132
Königsanger - Monte del Pascolo,2436,46.7064706,11.570479
Hirzer,2725,47.2178551,11.6632104
Großer Mittager - Monte Catino,2422,46.6842329,11.3101952
Lampsenspitze,2875,47.1560862,11.0956515
Gorfenspitze,2558,46.9553801,10.1755219
Mitterzeigerkogel,2628,47.2419041,11.0356552
Muttekopf,2284,47.3444804,10.3796216
Hinterer Grieskogel,2684,47.2293288,11.0039273
Kreuzjochkogel,2746,47.245949,11.0434847
Mugkogel,2693,47.2301002,11.0379643
Vorderer Grieskogel,2671,47.2261156,11.004509
Hochalter,2678,47.2315673,11.0308922
Bachwandkogel,2762,47.2474088,11.0515975
Hochwanner,2456,47.2390761,11.0167622
Kleiner Mugkogel,2446,47.2288502,11.0452008
Praxmarer Grießkogel,2712,47.1689325,11.1106798
Lüsener Fernerkogel,3299,47.0966877,11.1149346
Lüsener Spitze,3230,47.0883987,11.1108596
Vennspitze,2390,47.0230703,11.5405499
Piz de Pares,2394,46.6602134,11.9702885
Hoadl,2340,47.183039,11.2814914
Rossköpfe,2399,47.20883,10.9406181
Unknown,2458,47.27674,10.278519
Unknown,2440,47.274064,10.278254
Tschoren,2519,46.9006302,11.671386
Sternspitz - Punta Stella,2421,46.8982402,11.6642649
Hochrappenkopf Südgipfel,2424,47.278838,10.244897
Geier,2857,47.1401168,11.6328695
Sömen,2516,47.1767695,11.1122463
Kleine Freihut,2579,47.1870014,11.1202145
Freihut (Gipfelkreuz),2616,47.1837822,11.1222238
Gargglerin,2470,47.009069,11.3286671
Rintljoch,2166,47.4248788,10.7155198
Sumpfkopf,2341,47.0865374,11.5367816
Kleiner Terner Nock,2350,46.8721922,11.8028676
Hühnerspiel,2064,46.8475177,11.8182641
Puflatschspitz - Monte Bullaccia,2177,46.5641717,11.6165239
Schlern - Sciliar,2448,46.5108415,11.5607503
Hireli,2850,46.6766916,9.0175518
Piz Gren,2890,46.6776092,9.0227617
Piz Cugn,2672,46.6665131,9.0153449
Piz Cavel,2946,46.6558012,9.020058
Pizzo di Güida,2844,46.6032238,9.0162241
Piz Ner,2766,46.6072526,9.0117924
Muot la Greina,2398,46.6304409,9.0065719
Piz Ner,2691,46.6407516,9.0255813
Piz las Palas,2800,46.6427623,9.0150516
Muttner Horn,2401,46.6521088,9.4859557
Fellhorn,2037,47.35059,10.21756
Rensenspitz,2473,46.8599894,11.5833773
Sattelspitz,2454,46.8585261,11.5853195
Plattspitz - Cima Piatta,2669,46.8675746,11.5917592
Dreihornspitz - Cima Tre Corni,2666,46.8732143,11.5927258
Mutaspitz,2596,46.8641873,11.587464
Wieser Kragen,2619,46.8812439,11.6520232
Gaisjoch - Cima della Capra (Gurnatsch),2641,46.8635145,11.6445132
Jochspitz,2581,46.8651949,11.6500226
Fensterlekofel - Cima della Finestra,2564,46.8769425,11.6517324
Tschiffernaun - Monte Cavernone,2698,46.8850026,11.6478151
Kurzkofel,2591,46.8714079,11.6491588
Fanenstock,2239,46.9449137,9.1987867
Grüeniberg,2373,46.7905409,9.7868241
Krottenkopf Ostgipfel,2008,47.5445909,11.1992896
Wettersteinwand,2482,47.4222568,11.1663534
Rotplattenspitze,2399,47.4240934,11.1762074
Lahnerkopf,2121,47.4291531,10.4628248
Geierköpfle,2017,47.4489284,10.50244
Unknown,2119,47.3959029,10.3851082
Geiskopf,2277,47.17937,11.9382247
Innerer Falk,2666,47.1641061,11.9893503
Gabler,3263,47.1409354,12.1133055
Sonntagspitze,2882,46.8767762,10.0519732
Oberer Eisenkopf,2373,47.217957,10.645719
Senftenberg,2399,47.2123253,10.6259538
Grubigjoch,2586,47.212843,10.6145297
Alpstein,2298,46.7950386,9.6008857
Chlin Gürgaletsch,2279,46.7985052,9.5745447
Malakoff,2358,46.7842622,9.5830205
Güdaspitz,2160,46.7947227,9.6279958
Plattenhorn,2554,46.7775617,9.6249059
Kalkgrubenspitz,2738,46.8946775,11.5861281
Ochsenalmspitz,2867,46.9091152,11.5785679
Piz D'Err,3378,46.5452502,9.6915792
Piz Champatsch,2920,46.840851,10.2714793
Piz Nair,2966,46.8471384,10.2551792
Piz Clünas,2793,46.8203693,10.2447513
Rauchkopf - Dosso del Fumo,2170,46.8494925,11.9134338
Bärentaler Spitz - Cima Valperna,2450,46.8655654,11.8829753
Piz Soèr,2917,46.8429776,10.2811142
Fil Spadla,2936,46.8514016,10.2937446
Schrotthorn - Corno del Ceppo,2590,46.7328849,11.5120074
Jakobsspitz - Cima San Giacomo,2737,46.7632144,11.492002
Monte Nevoso - Schneebiger Nock,3358,46.9055216,12.084082
Mutnellspitz - Muttanella,2654,46.7793245,11.4764592
Getrumspitze,2589,46.7098247,11.4732635
